,station,lon,lat
0,PADK,-176.646,51.878
1,PAKH,-154.18,56.94
2,PAUT,-165.6041,54.1446
3,PALP,-150.9447,70.3443
4,PAFM,-157.8575,67.1063
5,PAKP,-151.7433,68.1336
6,PANC,-150.0261,61.1697
7,PAGN,-134.5851,57.5036
8,PANI,-159.543,61.5816
9,PANT,-131.5722,55.0424
10,PANV,-160.1901,62.6473
11,PARC,-145.5794,68.1147
12,PAAK,-174.2062,52.2206
13,PATQ,-157.4357,70.4673
14,PABR,-156.7922,71.2826
15,PABA,-143.5819,70.134
16,PABE,-161.8264,60.7858
17,PABT,-151.5189,66.9165
18,PALV,-152.302,60.816
19,PABV,-149.5072,61.4164
20,PFKT,-166.4657,65.3313
21,PABL,-161.1491,65.9816
22,PATW,-148.9556,63.3912
23,PALU,-166.1333,68.8833
24,PAEH,-162.0628,58.6464
25,PACZ,-166.0388,61.7803
26,PACE,-144.7809,65.5739
27,PARL,-144.7765,65.571
28,PALR,-148.4832,67.5045
29,PAVA,-165.6009,61.5408
30,PAJC,-158.3732,56.3115
31,PAEC,-149.8333,62.8833
32,PFCL,-158.5294,58.8337
33,PACD,-162.7323,55.2207
34,PACV,-145.4511,60.4889
35,PASC,-148.4652,70.1948
36,PADE,-162.7664,66.0696
37,PADL,-158.5055,59.0447
38,PADU,-166.5435,53.9001
39,PAEG,-141.1496,64.7781
40,PAII,-157.3856,58.1853
41,PAEI,-147.1015,64.6657
42,PAEL,-136.3474,58.1952
43,PFEL,-162.2705,64.615
44,PAED,-149.8065,61.2514
45,PAEM,-164.4908,62.7861
46,PAZK,-147.169,61.937
47,PAFA,-147.8761,64.8039
48,PAKF,-163.4103,54.8474
49,PAFL,-153.6111,62.5316
50,PAFK,-153.6225,62.5425
51,PFYU,-145.2667,66.5667
52,PABI,-145.7183,63.995
53,PAFR,-149.6531,61.2664
54,PAGB,-149.4899,68.4797
55,PAGA,-156.9374,64.7362
56,PAGM,-171.7328,63.7668
57,PAGL,-163.0394,64.5433
58,PAGK,-145.457,62.1602
59,PAGS,-135.7074,58.4253
60,PAHN,-135.5117,59.2429
61,PAHZ,-152.086,61.983
62,PAHV,-148.9689,63.8661
63,PAHC,-159.7749,62.1883
64,PAHO,-151.4766,59.6456
65,PAOH,-135.4519,58.1122
66,PAHP,-166.1466,61.5239
67,PAHL,-156.3514,65.6979
68,PAHS,-156.3833,65.7
69,PAHY,-132.8281,55.2061
70,PAIG,-155.9018,59.324
71,PAIL,-154.9092,59.7492
72,PAIM,-153.7038,65.9928
73,PAJN,-134.5763,58.355
74,PAFE,-133.9103,56.9614
75,PALG,-160.3413,61.5363
76,PAKV,-158.7413,64.319
77,PAEN,-151.2391,60.5797
78,PAKT,-131.7117,55.3567
79,PAIK,-160.4365,66.976
80,PAVC,-162.2662,55.1164
81,PAKN,-156.6539,58.6836
82,PAKI,-164.03,59.93
83,PAVL,-164.5483,67.7317
84,PAKW,-133.076,55.5792
85,PADQ,-152.4939,57.75
86,PAJZ,-157.2595,59.7266
87,PAOT,-162.6068,66.8857
88,PAKK,-161.1543,64.9395
89,PAKU,-149.5975,70.3308
90,PFKW,-161.4437,60.7903
91,PALH,-149.9651,61.1786
92,PAML,-150.6441,64.9976
93,PAMB,-159.05,58.9833
94,PADM,-162.0261,61.8643
95,PAMX,-142.9333,61.4333
96,PAMC,-155.607,62.9528
97,PAIN,-148.9106,63.7326
98,PAMY,-166.27,60.37
99,PAMR,-149.8573,61.2163
100,PAER,-153.82,61.25
101,PAMM,-131.5762,55.1308
102,PAMD,-146.338,59.432
103,PAMH,-152.3019,63.886
104,PAMO,-163.6819,62.0953
105,PABN,-142.9953,62.4017
106,PANA,-161.9785,60.6903
107,PAOU,-161.16,56.01
108,PANN,-149.074,64.5473
109,PANW,-157.33,59.45
110,PAFS,-154.36,63.02
111,PAWN,-162.975,67.5661
112,PAOM,-165.4452,64.5122
113,PFNO,-161.0222,66.8175
114,PAOR,-141.9292,62.9614
115,PFNU,-150.2535,70.4954
116,PAQT,-151.0056,70.21
117,PPNU,-150.0186,70.4141
118,PPIT,-162.4406,60.906
119,PAAQ,-149.0887,61.5949
120,PAXK,-145.5006,63.0246
121,PAPG,-132.9501,56.7999
122,PAPN,-157.57,57.58
123,PAPM,-161.82,59.01
124,PAPO,-166.8,68.35
125,PPIZ,-163.0053,69.7329
126,PAAD,-146.2901,70.136
127,PATO,-148.8389,60.785
128,PAAP,-134.6482,56.2468
129,PALJ,-154.319,60.204
130,PAPC,-166.8585,65.2537
131,PAPH,-158.6334,56.9591
132,PAPR,-150.6436,66.8141
133,PAPT,-152.75,62.1
134,PAQH,-161.8454,59.7551
135,PADG,-162.8992,68.0321
136,PARD,-162.9031,68.0314
137,PARY,-155.47,64.73
138,PARS,-161.3194,61.7749
139,PASM,-163.3018,62.0608
140,PASN,-170.2222,57.1553
141,PASD,-160.5214,55.3137
142,PASA,-170.4926,63.6864
143,PACM,-165.5738,61.8445
144,PASK,-159.9858,66.6001
145,PASO,-151.704,59.4424
146,PAWD,-149.4186,60.1269
147,PAHX,-159.5692,62.6923
148,PFSH,-161.224,64.3711
149,PASP,-147.5044,61.8122
150,PASY,174.1169,52.7141
151,PASH,-166.0894,66.2496
152,PAGH,-157.1624,66.8881
153,PASI,-135.3616,57.0471
154,PAGY,-135.3277,59.4538
155,PASW,-151.1914,61.9653
156,PADT,-143.9811,62.7089
157,PASL,-157.15,61.7167
158,PALK,-142.6667,62.0333
159,PASX,-151.0342,60.4758
160,PFWS,-157.0026,58.7021
161,PASV,-155.5748,61.0972
162,PAPB,-169.6631,56.5769
163,PAMK,-162.11,63.49
164,PAJV,-148.8833,61.7167
165,PATK,-150.095,62.32
166,PATA,-152.1069,65.1744
167,PATL,-155.9765,62.8944
168,PATE,-166.3393,65.2404
169,PATC,-167.9225,65.564
170,PATG,-160.3969,59.0536
171,PAOO,-165.0872,60.5413
172,PAUM,-152.135,69.3711
173,PAUN,-160.7991,63.8885
174,PAVW,-146.35,61.1333
175,PAVD,-146.248,61.134
176,PAFB,-147.6144,64.8375
177,PAWI,-159.9948,70.638
178,PAIW,-168.0949,65.6226
179,PAWS,-149.5406,61.5719
180,PAWM,-163.4128,64.6892
181,PAWR,-148.722,60.777
182,PAUO,-150.0517,61.7542
183,PAWG,-132.3698,56.4843
184,PAYA,-139.671,59.5121
185,EET,-86.78,33.18
186,8A0,-86.2558,34.2291
187,ALX,-85.963,32.9147
188,79J,-86.3938,31.3088
189,ANB,-85.8581,33.5882
190,AUO,-85.434,32.6151
191,AUB,-85.5,32.6
192,1R8,-87.8193,30.8703
193,EKY,-86.9263,33.3126
194,BHM,-86.7449,33.5655
195,OZR,-85.7134,31.2758
196,9A4,-87.3488,34.6594
197,CMD,-86.858,34.2687
198,3A1,-86.86,34.27
199,DCU,-86.9453,34.6525
200,DYA,-87.9541,32.4638
201,DHN,-85.45,31.32
202,EDN,-85.9048,31.2982
203,EUF,-85.1289,31.9513
204,GZH,-87.0441,31.4158
205,CQF,-87.877,30.4605
206,4R4,-87.877,30.4605
207,0J4,-86.3116,31.0425
208,NBJ,-87.6353,30.3891
209,4A9,-85.7214,34.4737
210,HEY,-85.6543,31.346
211,GAD,-86.0891,33.9726
212,PRN,-86.6108,31.8457
213,JKA,-87.6718,30.2905
214,1M4,-87.6004,34.2803
215,HDL,-85.3125,31.3641
216,0J6,-85.3117,31.3641
217,HSV,-86.7861,34.6439
218,MDQ,-86.56,34.86
219,LOR,-85.7511,31.3558
220,JFX,-87.3142,33.902
221,A08,-87.3848,32.5105
222,MXF,-86.3658,32.3829
223,MOB,-88.2456,30.6883
224,BFM,-88.0681,30.6268
225,MGM,-86.394,32.3006
226,MSL,-87.5996,34.7438
227,PLR,-86.2491,33.5588
228,RAM,-88.0833,29.05
229,1A9,-86.5127,32.4387
230,HUA,-86.6848,34.6786
231,4A6,-86.0059,34.6887
232,SEM,-86.9878,32.3439
233,SXS,-85.8549,31.3612
234,SCD,-86.3055,33.1718
235,ASN,-86.0512,33.5695
236,TOI,-86.0121,31.8604
237,TCL,-87.6161,33.2119
238,ADF,-93.0661,34.0998
239,M89,-93.0661,34.0998
240,BVX,-91.6472,35.7261
241,SUZ,-92.4794,34.5904
242,VBT,-94.2194,36.3457
243,HKA,-89.83,35.94
244,CDH,-92.7634,33.6228
245,CCA,-92.4516,35.5978
246,CXW,-92.5551,35.0199
247,4M9,-90.6479,36.4042
248,BYH,-89.9439,35.9643
249,ELD,-92.8133,33.221
250,FYV,-94.1701,36.0051
251,FLP,-92.5902,36.2909
252,FSM,-94.3674,35.3366
253,HRO,-93.1547,36.2615
254,HOT,-93.0962,34.478
255,DEQ,-94.3994,34.047
256,JBR,-90.6464,35.8317
257,LIT,-92.2357,34.7273
258,LRF,-92.1465,34.9168
259,AGO,-93.217,33.228
260,MEZ,-94.2026,34.5454
261,LLQ,-91.75,33.64
262,BPK,-92.47,36.37
263,MWT,-93.5781,34.5467
264,M19,-91.1764,35.6377
265,ORK,-92.2541,34.8331
266,LZK,-92.2594,34.835
267,XNA,-94.307,36.282
268,PBF,-91.9347,34.175
269,ROG,-94.107,36.3724
270,RUE,-93.0947,35.2578
271,SRC,-91.74,35.21
272,SLG,-94.49,36.1919
273,ASG,-94.1193,36.1764
274,SGT,-91.575,34.5995
275,TXK,-93.991,33.4537
276,ARG,-90.9251,36.1247
277,AWM,-90.2344,35.1351
278,BXK,-112.6862,33.4204
279,IFP,-114.5595,35.1574
280,CGZ,-111.7668,32.9549
281,CHD,-111.81,33.27
282,AZC,-113.0139,36.9599
283,P08,-111.4265,32.936
284,DMA,-110.883,32.166
285,DVT,-112.0826,33.6883
286,DUG,-109.6037,31.469
287,FLG,-111.6722,35.1403
288,FHU,-110.3442,31.5883
289,GBN,-112.72,32.8875
290,GXF,-112.7199,32.8875
291,GEU,-112.2951,33.5269
292,GYR,-112.3736,33.4224
293,GCN,-112.1547,35.9461
294,40G,-112.15,35.65
295,IGM,-113.933,35.2577
296,LGF,-114.3967,32.86
297,HII,-114.3583,34.5711
298,LUF,-112.383,33.535
299,A39,-111.9185,32.9908
300,FFZ,-111.7283,33.4608
301,OLS,-110.8458,31.4208
302,PGA,-111.4484,36.9261
303,PAN,-111.3393,34.2568
304,PHX,-112.0116,33.4343
305,MZJ,-111.3279,32.51
306,ALK,-110.4281,31.6072
307,PRC,-112.42,34.65
308,SAD,-109.6353,32.8547
309,SDL,-111.9105,33.6229
310,SEZ,-111.7884,34.8486
311,SOW,-110.0057,34.2655
312,JTC,-109.3109,34.1294
313,SJN,-109.38,34.52
314,TYL,-110.1118,34.4577
315,TUS,-110.938,32.1203
316,AVQ,-111.2184,32.4096
317,RYN,-111.1746,32.1422
318,NOZ,-114.4673,32.5095
319,CMR,-112.1947,35.3054
320,IWA,-111.6555,33.3078
321,RQE,-109.0614,35.6575
322,INW,-110.7225,35.0219
323,YUM,-114.606,32.6566
324,NYL,-114.606,32.6566
325,AAT,-120.5644,41.4914
326,ACV,-124.1086,40.9781
327,AUN,-121.0817,38.9548
328,AVX,-118.4158,33.405
329,BFL,-119.0542,35.4344
330,DAG,-116.7858,34.8536
331,BAB,-121.4366,39.1361
332,BUO,-116.9667,33.9333
333,BYS,-116.63,35.2805
334,L35,-116.856,34.2638
335,BIH,-118.3636,37.3731
336,BLU,-120.7098,39.275
337,BLH,-114.7169,33.6192
338,L08,-116.321,33.259
339,BUR,-118.3587,34.2007
340,C83,-121.6244,37.8276
341,CCB,-117.6874,34.1116
342,CMA,-119.0944,34.2138
343,CZZ,-116.4683,32.6261
344,NXF,-117.4565,33.2856
345,NFG,-117.3552,33.3011
346,CRQ,-117.28,33.13
347,O05,-121.2412,40.2824
348,CIC,-121.8584,39.7954
349,NID,-117.692,35.6855
350,CNO,-117.6361,33.9753
351,O22,-120.4146,38.0304
352,CCR,-122.0526,37.9916
353,AJO,-117.6024,33.8977
354,CEC,-124.238,41.7837
355,DLO,-119.2365,35.7456
356,EDW,-117.8837,34.9054
357,9L2,-117.8631,34.9908
358,NJK,-115.6717,32.8292
359,EMT,-118.035,34.086
360,NZJ,-117.731,33.676
361,EKA,-124.1603,40.8097
362,L18,-117.2509,33.3542
363,OAR,-121.7617,36.6815
364,FOT,-124.1327,40.5539
365,FAT,-119.7194,36.78
366,FCH,-119.8203,36.7321
367,FUL,-117.98,33.87
368,GOO,-121.0031,39.224
369,HAF,-122.4996,37.5136
370,HJO,-119.6232,36.3114
371,HHR,-118.3352,33.9228
372,HWD,-122.1212,37.6588
373,HMT,-117.022,33.734
374,CVH,-121.4103,36.8933
375,IPL,-115.5787,32.8342
376,NRS,-117.11,32.5631
377,IYK,-117.8295,35.6587
378,JAQ,-120.7943,38.3742
379,WJF,-118.2186,34.7411
380,POC,-117.7818,34.0916
381,WHP,-118.4134,34.2593
382,NLC,-119.9521,36.333
383,LHM,-121.3513,38.9092
384,LVK,-121.8149,37.6931
385,LPC,-120.4675,34.6656
386,LGB,-118.1472,33.8118
387,SLI,-118.052,33.79
388,CQT,-118.2912,34.0235
389,LAX,-118.3865,33.9382
390,MAE,-120.1107,36.9849
391,MMH,-118.8388,37.6241
392,RIV,-117.25,33.9
393,MYV,-121.5688,39.102
394,MHR,-121.2972,38.5553
395,MCE,-120.5179,37.286
396,MER,-120.5682,37.3805
397,NKX,-117.1366,32.8645
398,MOD,-120.9544,37.6258
399,NUQ,-122.049,37.4059
400,MHV,-118.152,35.059
401,SIY,-122.4682,41.7737
402,MRY,-121.8488,36.5904
403,MHS,-122.3171,41.3149
404,MWS,-118.0667,34.2333
405,F70,-117.1285,33.5742
406,APC,-122.2804,38.2075
407,EED,-114.6233,34.7664
408,3A6,-118.5667,34.3667
409,NZY,-117.2098,32.6922
410,DVO,-122.5561,38.1436
411,OAK,-122.2207,37.7213
412,L52,-120.6224,35.1015
413,OKB,-117.35,33.22
414,ONT,-117.6012,34.056
415,OVE,-121.62,39.49
416,OXR,-119.2072,34.2008
417,GXA,-117.6704,34.5666
418,PMD,-118.0846,34.6294
419,PSP,-116.5067,33.8297
420,PAO,-122.1151,37.4611
421,PRB,-120.6291,35.6694
422,O69,-122.6053,38.2578
423,PVF,-120.7533,38.7242
424,PTV,-119.0627,36.0296
425,NTD,-119.12,34.12
426,87Q,-121.2847,35.6656
427,RNM,-116.9152,33.0392
428,RBL,-122.2536,40.1519
429,RDD,-122.2934,40.509
430,O32,-119.451,36.671
431,RAL,-117.4451,33.9519
432,SAC,-121.495,38.5069
433,MCC,-121.4006,38.667
434,SMF,-121.5908,38.6954
435,SNS,-121.6093,36.6635
436,CPU,-120.6482,38.1461
437,SBD,-117.2349,34.0954
438,SQL,-122.2483,37.5119
439,NUC,-118.5885,33.0228
440,SDB,-118.7253,34.7434
441,SDM,-116.98,32.57
442,SEE,-116.9724,32.8262
443,SAN,-117.1845,32.7339
444,MYF,-117.1396,32.8157
445,SFO,-122.3749,37.619
446,SJC,-121.9244,37.3594
447,RHV,-121.82,37.33
448,SBP,-120.6441,35.2381
449,E16,-121.5968,37.0816
450,NSI,-119.4582,33.2398
451,SNA,-117.8682,33.6757
452,SBA,-119.8436,34.4261
453,SMX,-120.45,34.9
454,SMO,-118.4471,34.021
455,STS,-122.811,38.5037
456,IZA,-120.0756,34.6068
457,O87,-124.0667,40.0167
458,TVL,-119.9953,38.8939
459,SCK,-121.2383,37.8942
460,SVE,-120.5727,40.3757
461,TSP,-118.4392,35.135
462,TRM,-116.1597,33.6267
463,TOA,-118.3396,33.8034
464,TCY,-121.4416,37.6889
465,SUU,-121.9275,38.2627
466,O86,-122.6937,40.9828
467,TRK,-120.1396,39.32
468,NXP,-116.1622,34.2962
469,UKI,-123.2008,39.1258
470,EDU,-121.7865,38.5315
471,BAN,-119.52,38.3636
472,VCB,-121.9575,38.3775
473,VBG,-120.5768,34.7297
474,XVW,-120.5783,34.7275
475,VNY,-118.4892,34.2097
476,VCV,-117.383,34.5975
477,VIS,-119.3929,36.3187
478,WVI,-121.79,36.9394
479,O54,-122.9223,40.7473
480,DWA,-121.8569,38.5794
481,AFF,-104.8128,38.9697
482,AKO,-103.222,40.1756
483,ALS,-105.8614,37.4389
484,ASE,-106.8689,39.2232
485,0CO,-105.7639,39.7939
486,BDU,-105.2258,40.0394
487,BJC,-105.1172,39.9088
488,BKF,-104.7517,39.7017
489,AEJ,-106.1207,38.8142
490,ITR,-102.2854,39.2425
491,1V6,-105.1058,38.428
492,CWN,-104.85,38.75
493,CFO,-104.5376,39.7841
494,COS,-104.7008,38.8058
495,CRV,-105.589,40.055
496,CEZ,-108.6281,37.303
497,7BM,-106.2181,38.7825
498,CAG,-107.5216,40.4952
499,C99,-105.5533,39.8689
500,RCV,-106.352,37.7138
501,AJZ,-108.0636,38.7864
502,APA,-104.85,39.57
503,DEN,-104.6575,39.8328
504,DRO,-107.7538,37.1515
505,EGE,-106.9177,39.6426
506,ABH,-104.3083,38.7578
507,EIK,-105.048,40.0102
508,FCS,-104.7566,38.6784
509,FNL,-105.0113,40.4518
510,FMM,-103.8041,40.334
511,FTG,-104.5431,39.7852
512,GNB,-105.9113,40.0904
513,GJT,-108.54,39.1342
514,GXY,-104.6332,40.4374
515,GUC,-106.933,38.5339
516,HDN,-107.22,40.48
517,HEQ,-102.2727,40.5694
518,20V,-106.369,40.0537
519,LHX,-103.5122,38.0494
520,LAA,-102.6881,38.07
521,VTP,-105.1668,37.5007
522,LXV,-106.3161,39.2281
523,LIC,-103.6659,39.2748
524,LMO,-105.163,40.1637
525,FLY,-104.5699,38.9457
526,EEO,-107.8859,40.0488
527,MYP,-106.3168,38.484
528,MTJ,-107.8975,38.505
529,MNH,-104.6422,39.2231
530,3MW,-106.75,40.45
531,AIB,-108.5633,38.2388
532,PSO,-107.056,37.2862
533,PUB,-104.4983,38.29
534,4V0,-108.7593,40.0956
535,1NW,-103.8371,40.6319
536,CCU,-106.153,39.475
537,RIL,-107.7269,39.5263
538,04V,-106.17,38.1
539,ANK,-106.0486,38.5383
540,SHM,-104.5167,38.8
541,SPD,-102.6139,37.2833
542,SBS,-106.8663,40.5162
543,STK,-103.2648,40.6153
544,5SM,-107.379,39.426
545,TEX,-107.9085,37.9538
546,TAD,-104.3407,37.2594
547,33V,-106.2715,40.7503
548,4V1,-104.7881,37.6941
549,C07,-106.6992,40.3544
550,4BM,-105.514,39.05
551,CPW,-106.8,37.45
552,2V5,-102.241,40.1003
553,2V6,-102.7128,40.1046
554,BDR,-73.1289,41.1583
555,SNC,-72.5059,41.3839
556,DXR,-73.48,41.37
557,GON,-72.05,41.33
558,BDL,-72.6825,41.9381
559,HFD,-72.6494,41.7367
560,MMK,-72.83,41.51
561,HVN,-72.8868,41.2638
562,OXC,-73.1354,41.4741
563,IJD,-72.1836,41.7419
564,33N,-75.6005,39.2187
565,DOV,-75.466,39.1295
566,GED,-75.3589,38.6892
567,ILG,-75.6008,39.6728
568,AAF,-85.0274,29.7276
569,BOW,-81.7834,27.9434
570,BCT,-80.11,26.38
571,BKV,-82.4554,28.4736
572,FIN,-81.2087,29.4657
573,XMR,-80.5668,28.4677
574,VSH,-85.598,30.7799
575,NFJ,-86.9597,30.5069
576,CLW,-82.7563,27.9742
577,2IS,-81.0468,26.7339
578,CEW,-86.52,30.78
579,CTY,-83.1048,29.6355
580,CGC,-82.5713,28.8673
581,DAB,-81.0581,29.1799
582,54J,-86.1538,30.7311
583,DED,-81.2838,29.067
584,DTS,-86.4674,30.3934
585,EGI,-86.5229,30.6503
586,VPS,-86.5254,30.4832
587,FHB,-81.4612,30.6118
588,FXE,-80.17,26.2
589,FMY,-81.8614,26.585
590,FLL,-80.15,26.07
591,RSW,-81.7567,26.5381
592,FPR,-80.3767,27.4981
593,GNV,-82.276,29.6917
594,HWO,-80.2412,25.9996
595,HST,-80.3837,25.4884
596,HRT,-86.6893,30.4278
597,IMM,-81.401,26.4332
598,INF,-82.3182,28.8036
599,X40,-82.3179,28.8063
600,CRG,-81.5147,30.3361
601,JAX,-81.6879,30.4941
602,NIP,-81.6747,30.2342
603,VQQ,-81.8767,30.2187
604,NEN,-81.867,30.3495
605,42J,-82.0475,29.8448
606,EYW,-81.7596,24.5561
607,NQX,-81.6888,24.5757
608,ISM,-81.44,28.29
609,LCQ,-82.5769,30.1821
610,LAL,-82.0186,27.9889
611,X07,-81.6167,27.8934
612,LNA,-80.0848,26.5925
613,LEE,-81.81,28.82
614,24J,-83.0247,30.3001
615,MCF,-82.52,27.85
616,MTH,-81.0514,24.7262
617,MKY,-81.6725,25.995
618,MAI,-85.1839,30.8356
619,NRB,-81.4245,30.3914
620,MLB,-80.6453,28.1028
621,MIA,-80.3169,25.788
622,TMB,-80.4347,25.6423
623,OPF,-80.2828,25.9102
624,NDZ,-87.0231,30.7044
625,APF,-81.7753,26.1525
626,TTS,-80.6944,28.6149
627,EVB,-80.9489,29.0557
628,OCF,-82.221,29.1636
629,OBE,-80.8498,27.2628
630,ORL,-81.3329,28.5455
631,MCO,-81.309,28.4294
632,OMN,-81.1136,29.3006
633,28J,-81.6889,29.6586
634,XFL,-81.2063,29.4674
635,ECP,-85.7956,30.3582
636,PFN,-85.6828,30.2121
637,TDR,-85.5765,30.07
638,COF,-80.61,28.235
639,NPA,-87.318,30.3533
640,PNS,-87.1869,30.4781
641,FPY,-83.5815,30.0708
642,40J,-83.5736,30.0719
643,PCM,-82.1642,28.0002
644,PMP,-80.111,26.2464
645,PGD,-81.9914,26.9172
646,2J9,-84.5574,30.5979
647,SPG,-82.627,27.7651
648,PIE,-82.6874,27.91
649,SFB,-81.2436,28.7797
650,SRQ,-82.5586,27.4014
651,SEF,-81.3416,27.4547
652,SGJ,-81.3397,29.9592
653,TLH,-84.3514,30.3935
654,TPA,-82.5403,27.9619
655,TPF,-82.4493,27.9156
656,VVG,-81.9698,28.9446
657,TIX,-80.7992,28.5148
658,1J0,-85.6014,30.8458
659,BCR,-85.6017,30.8438
660,PAM,-85.5754,30.0696
661,X26,-80.4959,27.8126
662,VDF,-82.3453,28.014
663,VNC,-82.4403,27.0716
664,VRB,-80.4179,27.6556
665,F45,-80.2223,26.8459
666,PBI,-80.0994,26.6847
667,NSE,-87.0219,30.7242
668,X60,-82.4719,29.3557
669,GIF,-81.7533,28.0629
670,SUA,-80.22,27.18
671,ZPH,-82.1559,28.2281
672,ABY,-84.1945,31.5355
673,AMG,-82.5066,31.5361
674,ACJ,-84.1889,32.1108
675,AHN,-83.3264,33.9486
676,PDK,-84.302,33.8756
677,FTY,-84.52,33.78
678,ATL,-84.4418,33.6301
679,DNL,-82.0382,33.4669
680,AGS,-81.9645,33.3699
681,BGE,-84.6369,30.9716
682,BHC,-82.3938,31.7138
683,DZJ,-83.9973,34.8544
684,BIJ,-84.8948,31.3975
685,BQK,-81.4665,31.2588
686,SSI,-81.3908,31.1522
687,6A1,-84.2507,32.5674
688,CZL,-84.9392,34.4554
689,CXU,-84.2352,31.2132
690,18A,-83.1308,34.3404
691,47A,-84.4239,34.3106
692,CTJ,-85.1523,33.6317
693,VPC,-84.8487,34.1232
694,CNI,-84.4239,34.3106
695,CWV,-81.8696,32.1951
696,48A,-83.2759,32.3994
697,CSG,-84.9422,32.5161
698,CKF,-83.7739,31.9888
699,AJR,-83.5567,34.4998
700,9A1,-83.8496,33.6325
701,CVC,-83.8474,33.6323
702,PUJ,-84.9406,33.912
703,DNN,-84.87,34.72
704,MGE,-84.5163,33.9153
705,17J,-84.8776,31.007
706,DQH,-82.8606,31.4767
707,DBN,-82.9853,32.5644
708,EZM,-83.1287,32.2164
709,EBA,-82.8175,34.0954
710,27A,-82.8159,34.0952
711,49A,-84.5271,34.6301
712,FZG,-83.2709,31.6839
713,LSF,-84.9913,32.3373
714,LHW,-81.5623,31.8891
715,GVL,-83.8303,34.2719
716,3J7,-83.139,33.5977
717,4A7,-84.3324,33.3891
718,HMP,-84.331,33.3899
719,AZE,-82.6474,31.8847
720,HOE,-82.7741,31.0559
721,SVN,-81.146,32.01
722,19A,-83.5616,34.1759
723,JZP,-84.4572,34.4535
724,JCA,-83.5583,34.1739
725,JES,-81.8825,31.554
726,9A5,-85.2903,34.6885
727,LGC,-85.0726,33.0089
728,LZU,-83.9624,33.9781
729,2J3,-82.3857,32.9865
730,MCN,-83.6492,32.6928
731,RYY,-84.5986,34.0131
732,MQW,-82.8794,32.0969
733,MHP,-82.081,32.3739
734,MLJ,-83.2407,33.1542
735,2J5,-81.9654,32.8935
736,D73,-83.6928,33.7825
737,VAD,-83.193,30.9678
738,MGR,-83.8032,31.0849
739,MUL,-83.7041,31.1377
740,CCO,-84.77,33.31
741,FFC,-84.5669,33.3553
742,PXE,-83.7673,32.5106
743,PIM,-84.8824,32.8407
744,RVJ,-82.1536,32.0595
745,RMG,-85.1611,34.3478
746,OKZ,-82.8382,32.9667
747,SAV,-81.2021,32.1276
748,6A2,-84.2749,33.227
749,TBR,-81.7369,32.4827
750,SBO,-82.3699,32.6091
751,JYL,-81.5971,32.6453
752,OPN,-84.2594,32.954
753,TVI,-83.8811,30.9018
754,HQU,-82.5164,33.5297
755,TMA,-83.4885,31.429
756,TOC,-83.2964,34.5928
757,VLD,-83.2767,30.7825
758,VDI,-82.37,32.19
759,WRB,-83.5918,32.6401
760,IIY,-82.8158,33.7794
761,AYS,-82.3955,31.2491
762,WDR,-83.6674,33.9829
763,PHSF,-155.5538,19.76
764,PHHN,-156.0156,20.7945
765,PHIK,-157.9224,21.3187
766,PHTO,-155.0485,19.7203
767,PHNL,-157.9224,21.3187
768,PHOG,-156.43,20.9
769,PHJR,-158.0703,21.3074
770,PHMU,-155.6743,19.9984
771,PHNG,-157.7629,21.4509
772,PHKO,-156.0456,19.7388
773,PHBK,-159.7851,22.0228
774,PHJH,-156.6748,20.963
775,PHNY,-156.9514,20.7856
776,PHLI,-159.3394,21.9785
777,PHMK,-157.0963,21.1529
778,PMDY,-177.3756,28.2082
779,PHHI,-158.0443,21.4776
780,AXA,-94.2724,43.0796
781,AMW,-93.6185,41.9904
782,IKV,-93.5695,41.6878
783,AIO,-95.0465,41.4059
784,ADU,-94.9204,41.6994
785,BNW,-93.8486,42.0486
786,BRL,-91.1255,40.7729
787,CIN,-94.7889,42.0444
788,CID,-91.7246,41.8829
789,TVK,-92.8983,40.6832
790,CNC,-93.3608,41.0184
791,CCY,-92.6132,43.073
792,CKP,-95.5538,42.7304
793,ICL,-95.0223,40.7242
794,CAV,-93.7593,42.743
795,CWI,-90.3328,41.8295
796,CBF,-95.7604,41.2611
797,CSQ,-94.3608,41.0188
798,DEH,-91.7433,43.2755
799,DNS,-95.38,41.9842
800,DSM,-93.6531,41.534
801,DBQ,-90.7091,42.3984
802,EST,-94.7476,43.4008
803,FFL,-91.9834,41.0521
804,FXY,-93.6237,43.2323
805,FOD,-94.2032,42.5497
806,FSW,-91.3267,40.6615
807,GGI,-92.7332,41.7097
808,HPT,-93.2244,42.7175
809,HNR,-95.3355,41.5834
810,IIB,-91.9504,42.4544
811,IOW,-91.5445,41.6394
812,IFA,-93.2651,42.4691
813,EOK,-91.4274,40.4615
814,OXV,-93.1114,41.2984
815,LWD,-93.9005,40.6306
816,LRJ,-96.1922,42.7754
817,MIW,-92.9163,42.1106
818,MCW,-93.3261,43.1544
819,MXO,-91.1605,42.2204
820,MPZ,-91.5122,40.9453
821,MUT,-91.1406,41.367
822,TNU,-93.019,41.6701
823,OLZ,-91.976,42.6831
824,ORC,-96.0606,42.9895
825,I75,-93.6876,41.0472
826,OOA,-92.4919,41.2273
827,OTM,-92.4446,41.1008
828,PEA,-92.9431,41.3989
829,PRO,-94.1637,41.8278
830,DVN,-90.5948,41.6133
831,RDK,-95.2624,41.0106
832,SHL,-95.8353,43.2082
833,SDA,-95.4112,40.7533
834,SUX,-96.3795,42.3917
835,SXK,-96.1614,42.9858
836,SPW,-95.2101,43.1682
837,SLB,-95.2399,42.5972
838,VTI,-92.0248,42.2176
839,AWG,-91.6748,41.2751
840,ALO,-92.4013,42.5544
841,EBS,-93.8691,42.4392
842,1U7,-111.3416,42.2497
843,BOI,-116.2406,43.5667
844,65S,-116.2952,48.726
845,BYI,-113.7715,42.5426
846,EUL,-116.6358,43.6419
847,LLJ,-114.215,44.5228
848,COE,-116.8196,47.7743
849,DIJ,-111.0979,43.7419
850,P69,-115.5964,46.1442
851,GNG,-114.7652,42.9172
852,GIC,-116.1234,45.9426
853,SUN,-114.2956,43.5038
854,IDA,-112.0708,43.5137
855,JER,-114.4566,42.7267
856,LWS,-117.0154,46.3745
857,MLD,-112.2966,42.1666
858,77M,-113.334,42.316
859,MYL,-116.1017,44.8889
860,MUO,-115.8724,43.0436
861,MLP,-115.6711,47.4548
862,MAN,-116.5231,43.5813
863,PIH,-112.5959,42.9098
864,RXE,-111.8051,43.8339
865,SMN,-113.8813,45.1238
866,SZT,-116.56,48.2994
867,U78,-111.5799,42.6416
868,S14,-112.1833,44.35
869,SNT,-114.9269,44.1708
870,TWF,-114.4878,42.4818
871,ALN,-90.046,38.8899
872,BMI,-88.9159,40.4771
873,CPS,-90.1562,38.5707
874,CIR,-89.2196,37.0647
875,MDH,-89.25,37.78
876,CUL,-88.1231,38.0895
877,ENL,-89.0911,38.5151
878,CMI,-88.2778,40.0388
879,MDW,-87.7524,41.786
880,ARR,-88.48,41.77
881,DPA,-88.2486,41.9078
882,IGQ,-87.5295,41.5349
883,CGX,-87.6079,41.8588
884,ORD,-87.9319,41.9875
885,06C,-88.1012,41.9893
886,DNV,-87.5955,40.1997
887,DEC,-88.8657,39.8346
888,DKB,-88.7057,41.9338
889,1H2,-88.5335,39.0704
890,FWC,-88.4126,38.3786
891,FOA,-88.4531,38.665
892,FEP,-89.582,42.2462
893,GBG,-90.4311,40.938
894,HSB,-88.5503,37.8113
895,IJX,-90.2383,39.7746
896,JOT,-88.1756,41.5177
897,IKK,-87.8463,41.0714
898,C75,-89.3864,41.0193
899,LWV,-87.6055,38.7643
900,AAA,-89.335,40.1587
901,3LF,-89.6746,39.1625
902,MQB,-90.65,40.52
903,MWA,-89.0111,37.755
904,MTO,-88.2792,39.4779
905,M30,-88.7506,37.1859
906,MLI,-90.5075,41.4485
907,C09,-88.4186,41.4253
908,AJG,-87.7267,38.6065
909,I63,-90.8042,39.9875
910,MVN,-88.8583,38.3233
911,OLY,-88.1764,38.7218
912,PWK,-87.9047,42.1208
913,PRG,-87.67,39.7
914,PIA,-89.6839,40.6675
915,VYS,-89.1531,41.3519
916,PPQ,-90.7784,39.6389
917,PNT,-88.6239,40.9244
918,UIN,-91.1946,39.9428
919,TIP,-88.1424,40.2936
920,RSV,-87.6498,39.016
921,RPJ,-89.0783,41.893
922,RFD,-89.093,42.1927
923,LOT,-88.0962,41.6081
924,SLO,-88.9642,38.6429
925,SFY,-90.1079,42.0458
926,BLV,-89.8352,38.5452
927,SAR,-89.7,38.15
928,SPI,-89.6839,39.8447
929,SQI,-89.6763,41.7428
930,TAZ,-89.3278,39.5342
931,UGN,-87.8679,42.4222
932,AID,-85.613,40.1086
933,ANQ,-85.0835,41.6397
934,GWB,-85.0644,41.3072
935,HLB,-85.2583,39.3445
936,BMG,-86.6167,39.146
937,BAK,-85.8963,39.2619
938,CFJ,-86.9199,39.9756
939,DCY,-87.1297,38.7004
940,EKM,-86.0,41.72
941,EVV,-87.5205,38.0441
942,FWA,-85.1871,40.978
943,FKR,-86.5622,40.2734
944,FRH,-86.6369,38.5062
945,GYY,-87.4128,41.6163
946,GSH,-85.7922,41.5272
947,4I7,-86.8138,39.6336
948,GPC,-86.8155,39.6354
949,GUS,-86.1521,40.6481
950,HBE,-86.0305,39.3417
951,HNB,-86.95,38.25
952,HHG,-85.4571,40.8529
953,IND,-86.3048,39.7084
954,EYE,-86.2958,39.825
955,TYQ,-86.2514,40.0306
956,HFY,-86.088,39.6276
957,MQJ,-85.8971,39.8435
958,UMP,-86.045,39.935
959,JVY,-85.7382,38.3654
960,C62,-85.2541,41.4739
961,OXI,-86.6648,41.3302
962,OKK,-86.059,40.5282
963,LAF,-86.9333,40.4148
964,PPO,-86.7345,41.5725
965,GGP,-86.3727,40.7113
966,IMS,-85.4655,38.7589
967,MZZ,-85.6797,40.4899
968,MGC,-86.8212,41.7033
969,MCX,-86.7668,40.7088
970,MIE,-85.3958,40.2425
971,1II,-86.0305,39.3417
972,C65,-86.3005,41.3651
973,PLD,-84.9901,40.4508
974,RZL,-87.1826,40.9479
975,RID,-84.8428,39.7572
976,RCR,-86.1817,41.0655
977,GEZ,-85.8048,39.5831
978,SBN,-86.3164,41.7072
979,HUF,-87.3076,39.4515
980,VPZ,-87.0071,41.454
981,ASW,-85.8401,41.2747
982,ADT,-101.042,39.8401
983,3AU,-97.0779,37.6716
984,1K1,-97.1132,37.7744
985,UKL,-95.725,38.3025
986,CNU,-95.4842,37.6703
987,CFV,-95.5719,37.094
988,CBK,-101.0466,39.4274
989,3K8,-99.3309,37.2281
990,CNK,-97.65,39.55
991,DDC,-99.9654,37.7631
992,EQA,-96.8176,37.7741
993,EHA,-101.88,37.0008
994,EMP,-96.1897,38.3306
995,13K,-96.2929,37.8519
996,FLV,-94.9147,39.3683
997,FRI,-96.7645,39.0526
998,FSK,-94.7694,37.7984
999,GCK,-100.7244,37.9275
1000,GLD,-101.6933,39.3672
1001,GBD,-98.8592,38.3442
1002,HYS,-99.2732,38.8422
1003,HLC,-99.8297,39.3756
1004,HQG,-101.3705,37.1631
1005,HUT,-97.8606,38.0655
1006,IDP,-95.7784,37.1584
1007,K88,-95.3869,37.8682
1008,JHN,-101.7304,37.5782
1009,36K,-101.2554,37.9695
1010,LWC,-95.2115,39.0077
1011,LBL,-100.9599,37.0442
1012,LYO,-98.2286,38.3403
1013,MHK,-96.6778,39.1353
1014,MYZ,-96.6306,39.8553
1015,IAB,-97.2673,37.623
1016,MPR,-97.6913,38.3524
1017,P28,-98.5528,37.2839
1018,EWK,-97.2745,38.0582
1019,NRN,-99.8947,39.8504
1020,OEL,-100.8166,39.1017
1021,OIN,-100.5393,39.8339
1022,IXD,-94.8903,38.8309
1023,OJC,-94.7392,38.85
1024,OWI,-95.2542,38.5409
1025,PPF,-95.5042,37.3278
1026,PHG,-99.3171,39.7358
1027,PTS,-94.7311,37.4495
1028,PTT,-98.7469,37.7016
1029,RSL,-98.8118,38.8721
1030,SLN,-97.6522,38.791
1031,TQK,-100.8822,38.4782
1032,K82,-98.7934,39.7611
1033,SYF,-101.7959,39.7611
1034,19S,-100.8329,37.4969
1035,3K3,-101.7463,37.9917
1036,FOE,-95.6636,38.9509
1037,TOP,-95.62,39.07
1038,ULS,-101.3736,37.604
1039,EGT,-97.3883,37.325
1040,ICT,-97.43,37.65
1041,AAO,-97.22,37.75
1042,BEC,-97.215,37.6945
1043,WLD,-97.0369,37.1681
1044,DWU,-82.738,38.5545
1045,BRY,-85.4996,37.8143
1046,SJS,-82.6367,37.751
1047,BWG,-86.4197,36.9645
1048,FFT,-84.9033,38.1847
1049,CVG,-84.6717,39.0431
1050,DVK,-84.7697,37.5779
1051,EKX,-85.925,37.686
1052,K62,-84.3918,38.7041
1053,SYM,-83.5874,38.215
1054,FGX,-83.7434,38.5418
1055,HOP,-87.4962,36.6686
1056,FTK,-85.9721,37.9071
1057,27K,-84.4347,38.2344
1058,GLW,-85.9538,37.0318
1059,M21,-87.1564,37.2262
1060,KY8,-86.8592,37.953
1061,I35,-83.3585,36.8593
1062,EHR,-87.6857,37.8078
1063,JKL,-83.3144,37.5914
1064,6I2,-85.2418,37.6352
1065,LEX,-84.6058,38.0408
1066,LOZ,-84.077,37.087
1067,LOU,-85.6637,38.228
1068,SDF,-85.736,38.1744
1069,2I0,-87.3982,37.3559
1070,5M9,-88.1097,37.3363
1071,M25,-88.5847,36.7691
1072,1A6,-83.7374,36.6106
1073,EKQ,-84.8561,36.8553
1074,IOB,-83.9829,38.0575
1075,CEY,-88.3728,36.6646
1076,OWB,-87.1668,37.7388
1077,PAH,-88.7744,37.0563
1078,PBX,-82.5674,37.5587
1079,K22,-82.6367,37.751
1080,I39,-84.3323,37.6308
1081,RGA,-84.3324,37.6315
1082,SME,-84.6156,37.0536
1083,TWT,-87.9518,37.5408
1084,AAS,-85.3151,37.3569
1085,CPF,-83.2616,37.3874
1086,BYL,-84.1995,36.795
1087,IYA,-92.0842,29.9758
1088,0R3,-92.0842,29.9758
1089,ESF,-92.2827,31.3963
1090,AEX,-92.5586,31.3347
1091,7R3,-91.0986,29.6931
1092,ATP,-90.0269,27.1956
1093,AUD,-90.1299,29.917
1094,BAD,-93.6626,32.5019
1095,BQP,-91.8806,32.7561
1096,BTR,-91.1469,30.5372
1097,WBF,-90.5,26.93
1098,BXA,-89.865,30.8137
1099,BVE,-89.4075,29.3333
1100,1B7,-89.4333,29.35
1101,LNQ,-89.438,29.364
1102,CVW,-93.3,29.784
1103,7R5,-93.3,29.7833
1104,CWF,-93.1432,30.2106
1105,5R8,-93.4736,30.4411
1106,DRI,-93.34,30.83
1107,EHC,-92.878,28.429
1108,CMB,-92.9792,29.4406
1109,EIR,-91.489,28.634
1110,3B6,-91.68,28.22
1111,POE,-93.1916,31.0448
1112,9F2,-90.2,29.1
1113,BKB,-92.9781,31.0964
1114,GAO,-90.2611,29.4448
1115,2GL,-90.288,29.409
1116,AGI,-92.44,27.546
1117,SQE,-90.819,28.083
1118,REG,-90.9333,30.1667
1119,L38,-90.9406,30.1727
1120,3L4,-92.804,29.8
1121,AXO,-89.9667,29.25
1122,XCN,-91.5167,27.7667
1123,GRY,-90.441,27.625
1124,HDC,-90.42,30.52
1125,XIH,-94.521,29.18
1126,H08,-93.7333,28.4667
1127,HUM,-90.6604,29.5665
1128,IPN,-87.9858,28.085
1129,7R4,-92.13,29.78
1130,3R7,-92.6735,30.2427
1131,LFT,-91.9896,30.1986
1132,LCH,-93.2277,30.1255
1133,T41,-95.0641,29.6692
1134,GBK,-92.2025,27.2039
1135,3F3,-93.764,32.0717
1136,MNE,-93.2981,32.646
1137,F24,-93.2981,32.646
1138,CYD,-89.2167,28.1667
1139,MDJ,-89.7942,28.6425
1140,DSF,-88.2667,28.35
1141,GLX,-88.99,28.23
1142,MLU,-92.0377,32.5109
1143,IER,-93.0991,31.7357
1144,ARA,-91.8845,30.0292
1145,7N0,-90.0827,29.9527
1146,NEW,-90.0282,30.0424
1147,MSY,-90.2511,29.9933
1148,NBG,-90.035,29.8253
1149,HZR,-91.4787,30.7183
1150,ACP,-92.69,30.75
1151,H78,-88.48,28.18
1152,4C0,-93.18,29.78
1153,OPL,-92.0994,30.5584
1154,PTN,-91.339,29.7096
1155,AQV,-93.1761,31.3569
1156,QT8,-92.43,27.53
1157,QT9,-90.63,27.78
1158,XPY,-90.202,29.123
1159,APS,-90.5842,30.086
1160,RSN,-92.5883,32.5144
1161,VBS,-93.6383,29.4783
1162,GHB,-91.99,27.84
1163,P92,-91.525,29.559
1164,DNK,-93.1533,31.1106
1165,GSM,-90.9833,28.5333
1166,SPR,-91.206,28.599
1167,DTN,-93.745,32.5402
1168,SHV,-93.8244,32.4472
1169,ASD,-89.8222,30.3433
1170,SCF,-91.8711,29.1158
1171,7R8,-91.9833,28.3
1172,SRN,-91.8667,29.1167
1173,STZ,-90.666,28.16
1174,S58,-90.5833,28.5333
1175,UXL,-93.3761,30.1314
1176,VNP,-92.368,29.467
1177,VQT,-92.264,28.27
1178,TVR,-91.0299,32.3481
1179,0R4,-91.5065,31.562
1180,VOA,-87.781,29.229
1181,W60,-93.35,29.15
1182,BVY,-70.9161,42.5841
1183,BOS,-71.0097,42.3606
1184,CQX,-69.9933,41.6875
1185,CEF,-72.5348,42.194
1186,MQE,-71.1142,42.2121
1187,FIT,-71.7558,42.5519
1188,BED,-71.289,42.47
1189,HYA,-70.28,41.67
1190,LWM,-71.1234,42.7172
1191,GHG,-70.6721,42.0982
1192,MVY,-70.615,41.3931
1193,ACK,-70.0603,41.2531
1194,EWB,-70.9583,41.6764
1195,AQW,-73.1702,42.6962
1196,OWD,-71.1733,42.1912
1197,ORE,-72.2886,42.5701
1198,FMH,-70.5215,41.6585
1199,PSF,-73.2892,42.4272
1200,PYM,-70.7288,41.909
1201,PVC,-70.22,42.07
1202,TAN,-71.0211,41.8756
1203,BAF,-72.7161,42.1578
1204,ORH,-71.8757,42.2673
1205,ADW,-76.867,38.8108
1206,NAK,-76.4891,38.9913
1207,DMH,-76.61,39.28
1208,MTN,-76.4138,39.3257
1209,BWI,-76.6683,39.1754
1210,CGE,-76.0304,38.5393
1211,RSP,-77.468,39.645
1212,CGS,-76.9223,38.9806
1213,CBE,-78.7609,39.6154
1214,ESN,-76.069,38.8042
1215,FME,-76.7594,39.0854
1216,FDK,-77.3743,39.4176
1217,GAI,-77.166,39.1683
1218,HGR,-77.7297,39.7078
1219,2W6,-76.5501,38.3154
1220,2G4,-79.3394,39.5803
1221,OXB,-75.1239,38.3083
1222,NHK,-76.4118,38.286
1223,APG,-76.1688,39.4662
1224,RJD,-75.8663,38.9701
1225,SBY,-75.5103,38.3405
1226,W29,-76.3296,38.9764
1227,NUI,-76.4285,38.146
1228,DMW,-77.0077,39.6083
1229,LEW,-70.2835,44.0485
1230,AUG,-69.8,44.32
1231,BGR,-68.8281,44.8074
1232,BHB,-68.3616,44.4498
1233,NHZ,-69.9386,43.8922
1234,CAR,-68.02,46.87
1235,40B,-69.531,46.609
1236,EPM,-67.0127,44.9101
1237,FVE,-68.3127,47.2855
1238,IZG,-70.9479,43.9911
1239,GNR,-69.5953,45.4622
1240,HUL,-67.7921,46.1231
1241,MLT,-68.6856,45.6478
1242,OLD,-68.6743,44.9525
1243,PWM,-70.3044,43.6424
1244,PQI,-68.0448,46.689
1245,8B0,-70.6646,44.9919
1246,RKD,-69.0993,44.0601
1247,SFM,-70.708,43.3939
1248,WVL,-69.6755,44.5332
1249,IWI,-69.7126,43.9614
1250,ADG,-84.0773,41.8677
1251,AMN,-84.6879,43.3221
1252,APN,-83.5644,45.0717
1253,ARB,-83.7397,42.224
1254,BAX,-82.9854,43.7802
1255,BTL,-85.2515,42.3073
1256,SJX,-85.5666,45.6923
1257,ACB,-85.1984,44.9886
1258,BEH,-86.4285,42.1286
1259,RQB,-85.5041,43.7226
1260,CAD,-85.4189,44.2753
1261,CFS,-83.4454,43.4588
1262,CVX,-85.2747,45.3047
1263,FPK,-84.8114,42.5745
1264,SLH,-84.5193,45.6537
1265,CIU,-84.47,46.25
1266,OEB,-85.0525,41.9333
1267,P59,-87.875,47.4669
1268,DET,-83.0099,42.4092
1269,ONZ,-83.1615,42.0991
1270,DTW,-83.33,42.23
1271,YIP,-83.5304,42.2379
1272,DRM,-83.7439,46.0093
1273,ESC,-87.0937,45.7227
1274,FNT,-83.7494,42.9667
1275,FKS,-86.2008,44.6252
1276,FFX,-85.9949,43.4393
1277,GLR,-84.7036,45.0135
1278,GRR,-85.52,42.88
1279,GOV,-84.73,44.68
1280,SAW,-87.3954,46.3536
1281,CMX,-88.4891,47.1684
1282,MGN,-84.9134,45.4256
1283,JYM,-84.5858,41.9213
1284,BIV,-86.0967,42.7461
1285,HTL,-84.6711,44.3598
1286,OZW,-83.9822,42.6294
1287,Y70,-85.0606,42.938
1288,IMT,-88.1146,45.8184
1289,IWD,-90.1314,46.5275
1290,JXN,-84.4594,42.2598
1291,AZO,-85.5519,42.2347
1292,DUH,-83.6553,41.7358
1293,LAN,-84.58,42.78
1294,D95,-83.2723,43.0666
1295,LDM,-86.4079,43.9625
1296,MCD,-84.6372,45.865
1297,MBL,-86.2469,44.2725
1298,ISQ,-86.1718,45.9746
1299,P75,-86.23,45.95
1300,RMY,-84.9554,42.2512
1301,TEW,-84.4232,42.5658
1302,MNM,-87.6384,45.1266
1303,IKW,-84.2613,43.6629
1304,TTF,-83.4347,41.9399
1305,MOP,-84.7372,43.6217
1306,P53,-86.6508,46.4119
1307,MKG,-86.2367,43.1711
1308,ERY,-85.4572,46.3111
1309,OSC,-83.3942,44.4515
1310,RNP,-84.1389,42.9929
1311,PLN,-84.7967,45.5709
1312,PTK,-83.4201,42.6655
1313,P58,-82.7931,44.0219
1314,PHN,-82.5289,42.911
1315,PZQ,-83.8129,45.4071
1316,MBS,-84.08,43.53
1317,HYX,-83.8623,43.4334
1318,ANJ,-84.3684,46.4792
1319,MTC,-82.8355,42.6083
1320,LWA,-86.2561,42.3508
1321,IRS,-85.4389,41.8133
1322,HAI,-85.5934,41.9598
1323,TVC,-85.5824,44.7416
1324,VLL,-83.1779,42.5429
1325,Y31,-84.1798,44.2448
1326,AIT,-93.6768,46.5484
1327,AEL,-93.3672,43.6815
1328,AXN,-95.3947,45.8663
1329,AQP,-96.0043,45.2275
1330,AUM,-92.9333,43.6647
1331,BDE,-94.6122,48.7284
1332,BJI,-94.9337,47.5094
1333,BBB,-95.6506,45.3319
1334,FOZ,-93.6502,47.7828
1335,BRD,-94.1308,46.4047
1336,CFE,-93.8433,45.159
1337,CBG,-93.2642,45.5575
1338,CNB,-96.266,44.7295
1339,COQ,-92.5036,46.7011
1340,CQM,-92.6894,47.8219
1341,CDD,-92.483,48.266
1342,CKN,-96.6214,47.8417
1343,DTL,-95.8856,46.8252
1344,TOB,-92.8315,44.018
1345,DLH,-92.1936,46.8421
1346,DYT,-92.0434,46.7219
1347,Y63,-95.992,45.9861
1348,ELO,-91.8371,47.8287
1349,EVM,-92.4981,47.4251
1350,FRM,-94.4156,43.6439
1351,FBL,-93.3108,44.3247
1352,FFM,-96.1567,46.2844
1353,FGN,-94.9028,49.3183
1354,FSE,-95.7735,47.5928
1355,GYL,-94.0812,44.756
1356,GHW,-95.3204,45.6439
1357,GNA,-90.3457,47.7453
1358,CKC,-90.3829,47.8383
1359,GPZ,-93.5097,47.2111
1360,GDB,-95.556,44.7533
1361,HCO,-96.943,48.7527
1362,HIB,-92.839,47.3866
1363,04W,-92.8952,46.0229
1364,HCD,-94.3825,44.8599
1365,INL,-93.3956,48.5595
1366,MJQ,-94.9866,43.65
1367,LJF,-94.5072,45.0971
1368,LXL,-94.3469,45.9492
1369,14Y,-94.8739,45.8983
1370,XVG,-94.2039,46.99
1371,LYV,-96.2158,43.6212
1372,DXX,-96.1779,44.9864
1373,3N8,-95.9281,47.2605
1374,MKT,-93.92,44.22
1375,MGG,-93.9856,45.236
1376,MML,-95.82,44.45
1377,HZX,-93.3098,46.6188
1378,ANE,-93.2102,45.1449
1379,MSP,-93.2313,44.8854
1380,MIC,-93.3511,45.0622
1381,FCM,-93.4607,44.8261
1382,LVN,-93.2273,44.6252
1383,MVE,-95.7102,44.969
1384,JKJ,-96.664,46.8393
1385,MZH,-92.8048,46.4186
1386,JMR,-93.2718,45.8861
1387,MOX,-95.9672,45.566
1388,ULM,-94.5,44.32
1389,OVL,-95.0328,44.7786
1390,ORB,-92.856,48.0159
1391,VVV,-96.4244,45.3057
1392,OWA,-93.2606,44.1233
1393,PKD,-95.07,46.9
1394,PEX,-94.7466,45.3723
1395,PWC,-94.3817,46.7248
1396,PQN,-96.3004,43.9821
1397,FKA,-92.1797,43.6767
1398,PNM,-93.6082,45.5599
1399,RYM,-94.3575,46.0895
1400,RGK,-92.4868,44.5915
1401,RWF,-95.082,44.5469
1402,RST,-92.4916,43.9041
1403,9MN,-92.4831,44.0198
1404,ROX,-95.6971,48.856
1405,ROS,-92.953,45.698
1406,D39,-94.9334,45.7066
1407,BFW,-91.4098,47.2521
1408,DVP,-95.7826,43.9868
1409,SGS,-93.0329,44.8571
1410,SYN,-93.0145,44.4736
1411,SAZ,-94.8066,46.3809
1412,STC,-94.0513,45.5433
1413,JYG,-94.5579,43.9863
1414,STP,-93.06,44.9345
1415,21D,-92.8557,44.9975
1416,TVF,-96.185,48.0657
1417,P61,-90.8231,47.588
1418,TKC,-95.6072,44.2491
1419,TWM,-91.745,47.0492
1420,ADC,-95.211,46.4503
1421,Y49,-94.6453,47.1595
1422,RRT,-95.3483,48.9414
1423,ACQ,-93.5529,44.0735
1424,VWU,-94.5167,48.1539
1425,ETH,-96.5435,45.7805
1426,BDH,-95.1304,45.1177
1427,ILL,-95.0888,45.1157
1428,MWM,-95.1094,43.9134
1429,ONA,-91.7083,44.0772
1430,OTG,-95.5792,43.6551
1431,VER,-92.6827,38.9467
1432,BBG,-93.2005,36.5321
1433,FWB,-93.4022,36.6985
1434,OZS,-92.6912,37.974
1435,H21,-92.6912,37.974
1436,EZZ,-94.2764,39.7276
1437,CGI,-89.5708,37.2253
1438,CDJ,-93.5792,39.8233
1439,GLY,-93.6842,38.3566
1440,COU,-92.2183,38.8169
1441,FAM,-90.4286,37.761
1442,TBN,-92.1407,37.7416
1443,GVW,-94.5603,38.8439
1444,HAE,-91.4439,39.7252
1445,LRY,-94.3421,38.611
1446,JEF,-92.1561,38.5912
1447,JLN,-94.4952,37.1522
1448,AIZ,-92.5495,38.096
1449,MKC,-94.593,39.123
1450,MCI,-94.7139,39.2976
1451,TKX,-90.0366,36.2259
1452,IRK,-92.5433,40.0972
1453,LBO,-92.6524,37.6483
1454,LXT,-94.3714,38.9597
1455,MAW,-89.9922,36.6005
1456,MHL,-93.2028,39.0955
1457,EVU,-94.915,40.3525
1458,MYJ,-91.8183,39.1575
1459,MBY,-92.4244,39.464
1460,HFJ,-94.0128,36.9062
1461,GPH,-94.3096,39.3325
1462,K02,-89.8621,37.8687
1463,PCD,-89.8651,37.8667
1464,POF,-90.3249,36.7739
1465,DMO,-93.1759,38.7074
1466,SIK,-89.5577,36.9027
1467,SGF,-93.3897,37.2397
1468,SET,-90.43,38.93
1469,STJ,-94.9097,39.7719
1470,STL,-90.3734,38.7524
1471,SUS,-90.6558,38.6572
1472,VIH,-91.77,38.13
1473,RCM,-93.8029,38.7842
1474,RAW,-93.3454,38.3469
1475,FYG,-90.9938,38.5876
1476,UNO,-91.9027,36.8784
1477,SZL,-93.548,38.7303
1478,M40,-88.4897,33.8738
1479,PMU,-89.8929,34.3635
1480,HSA,-89.4546,30.3678
1481,01M,-88.2011,34.4917
1482,1R7,-90.4093,31.6058
1483,CKM,-90.5123,34.2997
1484,RNV,-90.7579,33.7611
1485,0R0,-89.8128,31.297
1486,CBM,-88.4438,33.6438
1487,CRX,-88.6035,34.915
1488,GTR,-88.5914,33.4503
1489,GLH,-90.9856,33.4829
1490,GWO,-90.0847,33.4943
1491,GNF,-89.7982,33.8325
1492,GPT,-89.0701,30.4073
1493,HBG,-89.2529,31.2649
1494,IDL,-90.6789,33.4857
1495,MYT,-89.615,28.2206
1496,15M,-88.1659,34.7723
1497,HKS,-90.2225,32.3348
1498,JAN,-90.08,32.32
1499,BIX,-88.9244,30.4104
1500,LUL,-89.1728,31.673
1501,MBO,-90.1014,32.4384
1502,MIS,-88.842,29.296
1503,MCB,-90.47,31.18
1504,MEI,-88.7511,32.3348
1505,NMM,-88.5556,32.5521
1506,NJW,-88.8317,32.7962
1507,IKT,-88.2889,28.5208
1508,HEZ,-91.2973,31.6137
1509,OLV,-89.7869,34.9788
1510,UOX,-89.5368,34.3843
1511,PQL,-88.5319,30.4636
1512,MJD,-89.6512,30.4875
1513,PIB,-89.3371,31.4671
1514,M16,-90.4105,32.3045
1515,JVW,-90.4105,32.3045
1516,STF,-88.8486,33.4331
1517,UTA,-90.3467,34.6811
1518,TUP,-88.7711,34.2608
1519,VKS,-90.9282,32.2391
1520,DLP,-89.5472,29.1214
1521,5A6,-89.7302,33.465
1522,3U3,-112.8678,46.1531
1523,BHK,-104.2594,46.3476
1524,00U,-107.6604,45.7444
1525,6S0,-109.9736,45.8063
1526,BIL,-108.5422,45.8069
1527,BZN,-111.1608,45.7881
1528,BTM,-112.4975,45.9548
1529,S71,-109.2506,48.5921
1530,CII,-112.1683,47.8283
1531,4U6,-105.5619,47.4186
1532,M46,-106.7093,45.8528
1533,S85,-104.5041,48.1533
1534,CTB,-112.3762,48.6084
1535,38S,-112.7646,46.3867
1536,DLN,-112.5525,45.2554
1537,3DU,-113.15,46.6667
1538,EKS,-111.6486,45.2718
1539,88M,-115.0764,48.9738
1540,1S3,-106.6239,46.2712
1541,79S,-110.6365,47.8451
1542,GGW,-106.6214,48.2138
1543,GDV,-104.8072,47.1387
1544,1GM,-112.1,47.33
1545,MVH,-108.9368,46.8381
1546,GTF,-111.3822,47.4733
1547,HRF,-114.1246,46.2546
1548,6S5,-114.1255,46.2515
1549,HMM,-114.15,46.25
1550,HVR,-109.7633,48.5428
1551,HLN,-111.9636,46.6056
1552,JDN,-106.9475,47.3258
1553,GPI,-114.2636,48.3042
1554,1KM,-109.8,46.45
1555,6S8,-108.7611,45.7031
1556,LWT,-109.4667,47.0492
1557,S59,-115.4902,48.2838
1558,1LM,-109.7333,46.7
1559,LVM,-110.45,45.7
1560,GFA,-111.1873,47.5047
1561,M75,-107.9179,48.3689
1562,MLS,-105.8862,46.428
1563,MSO,-114.0925,46.9208
1564,S34,-114.9071,47.4736
1565,PWD,-104.5232,48.7886
1566,PO1,-105.1621,48.1344
1567,7S0,-114.1001,47.5683
1568,RPX,-108.5434,46.475
1569,9S2,-105.4361,48.8078
1570,SDY,-104.1926,47.7069
1571,8S0,-113.1148,48.6014
1572,THM,-115.2807,47.5735
1573,9S5,-111.5619,45.8827
1574,RVF,-112.3023,45.5354
1575,7S1,-112.3026,45.5338
1576,WYS,-111.1176,44.6884
1577,WEY,-111.1,44.65
1578,7S6,-110.9133,46.5041
1579,OLF,-105.575,48.0945
1580,ASJ,-77.17,36.3
1581,VUJ,-80.1508,35.4167
1582,RHP,-83.863,35.1952
1583,HBI,-79.8948,35.6545
1584,GEV,-81.42,36.43
1585,AVL,-82.5375,35.4319
1586,NJM,-77.0294,34.694
1587,BUY,-79.4749,36.0485
1588,CLT,-80.9543,35.2226
1589,NKT,-76.88,34.9
1590,CTZ,-78.3644,34.9756
1591,CPC,-78.7146,34.2753
1592,JQF,-80.7091,35.3878
1593,ONX,-76.0154,36.3999
1594,2DP,-75.9,35.6667
1595,EDE,-76.5671,36.0277
1596,ECG,-76.1716,36.2577
1597,EYF,-78.58,34.6
1598,7W6,-75.9552,35.5624
1599,HRJ,-78.7336,35.3786
1600,FAY,-78.8803,34.9912
1601,FBG,-78.9367,35.1318
1602,1A5,-83.42,35.22
1603,AKH,-81.1558,35.1967
1604,GWW,-77.9649,35.4606
1605,GSO,-79.9436,36.0975
1606,HSE,-75.6225,35.2322
1607,HNZ,-78.53,36.36
1608,HKY,-81.3896,35.7412
1609,OAJ,-77.6121,34.8292
1610,NR02,-79.9956,35.2378
1611,DPL,-77.98,35.0
1612,FFA,-75.67,36.02
1613,ISO,-77.61,35.33
1614,MEB,-79.3658,34.7919
1615,EXX,-80.3038,35.7811
1616,IPJ,-81.1612,35.4833
1617,LHZ,-78.3303,36.0233
1618,LBT,-79.06,34.61
1619,HFF,-79.4974,35.0367
1620,MQI,-75.6955,35.919
1621,EQY,-80.6206,35.0169
1622,MRN,-81.61,35.82
1623,MWK,-80.55,36.46
1624,EWN,-77.0472,35.0675
1625,NCA,-77.4397,34.7084
1626,UKF,-81.0983,36.2228
1627,NBT,-76.4625,35.0222
1628,PGV,-77.3853,35.6352
1629,POB,-79.0145,35.1709
1630,RDU,-78.7819,35.8922
1631,SIF,-79.851,36.4372
1632,IXA,-77.6352,36.3298
1633,RZZ,-77.71,36.44
1634,RCZ,-79.76,34.89
1635,RWI,-77.8919,35.8562
1636,RUQ,-80.5203,35.6459
1637,TDF,-78.9842,36.2849
1638,FQD,-81.9351,35.4282
1639,TTA,-79.1,35.58
1640,GSB,-77.9606,35.3394
1641,EHO,-81.6011,35.2556
1642,SCR,-79.5043,35.7043
1643,5W8,-79.504,35.7045
1644,JNX,-78.3903,35.5409
1645,MRH,-76.6606,34.7336
1646,SOP,-79.3911,35.2372
1647,SUT,-78.0747,33.9292
1648,SVH,-80.9539,35.765
1649,24A,-83.2071,35.3159
1650,ETC,-77.5465,35.9373
1651,AFP,-80.0771,35.0206
1652,OCW,-77.05,35.57
1653,TNB,-81.65,36.2
1654,IGX,-79.0642,35.9333
1655,ILM,-77.9,34.27
1656,INT,-80.222,36.1337
1657,20U,-103.9821,46.9252
1658,BIS,-100.7458,46.7727
1659,BWW,-103.3007,46.1655
1660,BPP,-103.4281,46.187
1661,9D7,-99.2364,48.48
1662,46D,-99.1513,47.4511
1663,2C8,-97.632,48.7837
1664,D50,-103.2973,48.9285
1665,DVL,-98.9083,48.1146
1666,DIK,-102.8019,46.7973
1667,FAR,-96.8111,46.9253
1668,N60,-101.4394,47.6458
1669,D57,-101.8602,46.8128
1670,GAF,-97.3709,48.4047
1671,GFK,-97.1761,47.9492
1672,RDR,-97.4012,47.9611
1673,GWR,-97.6435,46.2187
1674,5H4,-99.9318,47.7912
1675,HZE,-101.581,47.2899
1676,HEI,-102.656,46.0149
1677,JMS,-98.68,46.93
1678,D55,-98.3937,48.7531
1679,P67,-97.15,46.1
1680,7L2,-100.2456,46.2206
1681,Y19,-100.8944,46.768
1682,MIB,-101.358,48.4158
1683,MOT,-101.2803,48.2594
1684,2D5,-98.0799,46.1731
1685,S32,-98.1059,47.4228
1686,06D,-99.6208,48.8844
1687,RUG,-100.0243,48.3904
1688,08D,-102.4064,48.3008
1689,D60,-102.8974,48.3803
1690,BAC,-98.018,46.9412
1691,BWP,-96.6074,46.2441
1692,96D,-97.9028,48.9406
1693,S25,-103.2552,47.7966
1694,ISN,-103.6366,48.1738
1695,XWA,-103.7505,48.2597
1696,ANW,-99.993,42.5792
1697,BVN,-98.0558,41.7286
1698,AIA,-102.8,42.0572
1699,AUH,-97.9946,40.8941
1700,BIE,-96.7541,40.3013
1701,BTA,-96.109,41.4148
1702,BBW,-99.6385,41.4366
1703,CDR,-103.0954,42.8376
1704,OLU,-97.3426,41.448
1705,CZD,-100.0042,40.8696
1706,FNB,-95.592,40.0788
1707,FET,-96.52,41.45
1708,GRN,-102.1753,42.806
1709,GRI,-98.3096,40.9675
1710,1HW,-102.8289,41.3251
1711,1CW,-103.6706,41.59
1712,HSI,-98.4279,40.6052
1713,HJH,-97.587,40.1522
1714,HDE,-99.3365,40.4521
1715,IML,-101.6202,40.5103
1716,EAR,-99.0068,40.727
1717,IBM,-103.6774,41.1881
1718,LXN,-99.7759,40.7904
1719,LNK,-96.7647,40.8478
1720,1BW,-103.995,41.5118
1721,MCK,-100.5921,40.2063
1722,MLE,-96.112,41.196
1723,AFK,-95.8657,40.6069
1724,OFK,-97.4351,41.9855
1725,LBF,-100.669,41.1219
1726,OFF,-95.9125,41.1183
1727,OGA,-101.7697,41.1195
1728,OMA,-95.8992,41.3103
1729,ONL,-98.6881,42.4697
1730,ODX,-98.9517,41.6236
1731,PMV,-95.9179,40.9502
1732,BFF,-103.5956,41.874
1733,SNY,-102.9847,41.1014
1734,TQE,-96.1779,41.7635
1735,TIF,-100.569,41.9622
1736,VTN,-100.5489,42.8567
1737,AHQ,-96.5946,41.2406
1738,LCG,-96.9814,42.2419
1739,JYR,-97.6228,40.8968
1740,BML,-71.1786,44.5761
1741,CON,-71.5011,43.1953
1742,AFN,-72.003,42.8051
1743,EEN,-72.27,42.9
1744,LCI,-71.4215,43.5735
1745,LEB,-72.3042,43.6261
1746,MHT,-71.4358,42.9328
1747,MWN,-71.3035,44.2708
1748,ASH,-71.5148,42.7818
1749,PSM,-70.8233,43.0779
1750,1P1,-71.7537,43.7792
1751,DAW,-70.92,43.28
1752,HIE,-71.5522,44.3659
1753,12N,-74.7367,41.0089
1754,ACY,-74.5772,39.4576
1755,BLM,-74.13,40.18
1756,CDW,-74.2831,40.8764
1757,NEL,-74.3536,40.0334
1758,LDJ,-74.2446,40.6174
1759,WRI,-74.5917,40.0156
1760,MIV,-75.0783,39.3661
1761,MMU,-74.4149,40.7994
1762,EWR,-74.1693,40.6827
1763,SMQ,-74.6694,40.6239
1764,VAY,-74.8457,39.9429
1765,FWN,-74.623,41.2002
1766,TEB,-74.0562,40.859
1767,MJX,-74.2924,39.9275
1768,TTN,-74.8159,40.2768
1769,WWD,-74.9083,39.0085
1770,ALM,-105.9906,32.8399
1771,AEG,-106.7952,35.1452
1772,ABQ,-106.6155,35.0419
1773,E80,-106.8337,34.6452
1774,AXX,-105.2899,36.422
1775,ATS,-104.4677,32.8525
1776,BRG,-106.836,34.646
1777,CVS,-103.3222,34.3828
1778,CNM,-104.2633,32.3375
1779,E33,-106.5833,36.9
1780,CAO,-103.1539,36.4486
1781,CQC,-105.6628,35.0028
1782,CVN,-103.0793,34.4251
1783,4CR,-105.68,34.1
1784,DMN,-107.7206,32.2623
1785,5T6,-106.7048,31.881
1786,FMN,-108.2292,36.7436
1787,GUP,-108.7893,35.5111
1788,GNT,-107.9021,35.1673
1789,HBB,-103.2167,32.7667
1790,HOB,-103.217,32.6875
1791,HMN,-106.1085,32.8519
1792,LRU,-106.922,32.2894
1793,LVS,-105.1424,35.6542
1794,LSB,-108.6917,32.3335
1795,LAM,-106.2694,35.8798
1796,M63,-106.15,32.07
1797,4MR,-103.8,34.3
1798,0E0,-106.0095,34.9856
1799,4MY,-106.05,34.9833
1800,RTN,-104.5022,36.7415
1801,ROW,-104.53,33.3
1802,SRR,-105.5348,33.4628
1803,SAF,-106.0894,35.6171
1804,SXU,-104.6426,34.9357
1805,DNA,-106.7032,31.8804
1806,SVC,-108.1564,32.6366
1807,ONM,-106.9031,34.0225
1808,SKX,-105.6724,36.4582
1809,4SL,-107.1833,35.8
1810,TCS,-107.2681,33.2367
1811,TCC,-103.6032,35.1828
1812,TMT,-117.1971,39.4643
1813,U31,-117.0833,39.5
1814,BAM,-116.8743,40.599
1815,B23,-116.8667,40.6
1816,BVU,-114.8611,35.9475
1817,P38,-114.5264,37.6122
1818,CXP,-119.7326,39.1923
1819,EKO,-115.786,40.8242
1820,ELY,-114.8453,39.295
1821,05U,-116.0051,39.6042
1822,P68,-116.0056,39.6014
1823,NFL,-118.701,39.4166
1824,HTH,-118.6315,38.5448
1825,HND,-115.1344,35.9729
1826,INS,-115.6734,36.5872
1827,LAS,-115.1522,36.0801
1828,LOL,-118.5701,40.0684
1829,DRA,-116.0278,36.6206
1830,MEV,-119.75,38.9963
1831,LSV,-115.0342,36.2362
1832,VGT,-115.1944,36.2107
1833,RTS,-119.8764,39.6682
1834,RNO,-119.7711,39.4839
1835,TPH,-117.0904,38.0505
1836,BJN,-116.2642,37.6142
1837,9BB,-114.9667,41.1167
1838,AWH,-115.784,41.666
1839,WMC,-117.8072,40.9019
1840,ALB,-73.8036,42.7576
1841,GVQ,-78.1675,43.0317
1842,BGM,-75.9797,42.2086
1843,HWV,-72.8689,40.8217
1844,BUF,-78.7358,42.9408
1845,IUA,-77.3252,42.9089
1846,N03,-76.2174,42.5929
1847,DSV,-77.713,42.5709
1848,DKK,-79.272,42.4933
1849,JPX,-72.2517,40.9594
1850,HTO,-72.25,40.96
1851,ELM,-76.8994,42.1571
1852,FRG,-73.4134,40.7288
1853,GTB,-75.7195,44.0556
1854,GFL,-73.6103,43.3412
1855,RME,-75.3953,43.2239
1856,VGC,-75.5612,42.8434
1857,ISP,-73.1017,40.7939
1858,ITH,-76.4584,42.491
1859,JHW,-79.258,42.1534
1860,NY0,-74.3296,42.9982
1861,JRB,-74.009,40.7012
1862,MSS,-74.8456,44.9358
1863,MTP,-71.9233,41.0731
1864,MSV,-74.795,41.7016
1865,SWF,-74.1048,41.5041
1866,NYC,-73.9692,40.779
1867,JFK,-73.7622,40.6386
1868,LGA,-73.8803,40.7794
1869,IAG,-78.9462,43.1073
1870,OIC,-75.5241,42.5666
1871,OGS,-75.4655,44.6819
1872,OLE,-78.3714,42.2412
1873,MGJ,-74.265,41.5092
1874,FZY,-76.3831,43.3504
1875,PEO,-77.0529,42.6371
1876,PBG,-73.4624,44.6382
1877,PLB,-73.5245,44.6875
1878,PTD,-74.9469,44.6757
1879,POU,-73.8842,41.6266
1880,ROC,-77.6767,43.1167
1881,SLK,-74.2062,44.3853
1882,SCH,-73.93,42.85
1883,6B9,-76.4408,42.914
1884,XNT,-78.6581,42.5084
1885,SYR,-76.1063,43.1112
1886,UCA,-75.3839,43.1451
1887,ART,-76.0262,43.9888
1888,ELZ,-77.99,42.11
1889,FOK,-72.6318,40.8436
1890,HPN,-73.7075,41.0669
1891,SDC,-77.1195,43.2346
1892,AKR,-81.4669,41.0375
1893,CAK,-81.4422,40.9161
1894,UNI,-82.2293,39.2119
1895,HZY,-80.6955,41.778
1896,I69,-84.2102,39.0784
1897,EDJ,-83.8192,40.3723
1898,TZR,-83.1369,39.9012
1899,CDI,-81.5776,39.975
1900,RZT,-83.0231,39.4404
1901,LUK,-84.4186,39.1033
1902,CLE,-81.8528,41.405
1903,BKL,-81.6833,41.5175
1904,CGF,-81.4864,41.5651
1905,CMH,-82.8808,39.9914
1906,OSU,-83.08,40.08
1907,DAY,-84.2186,39.9061
1908,MGY,-84.2249,39.589
1909,I19,-83.992,39.691
1910,DFI,-84.4288,41.3375
1911,DLZ,-83.1148,40.2797
1912,FDY,-83.6686,41.0136
1913,HAO,-84.5219,39.3638
1914,I67,-84.7743,39.2589
1915,I43,-82.5778,38.9814
1916,LHQ,-82.6571,39.7556
1917,I68,-84.2532,39.4664
1918,AOH,-84.0267,40.7069
1919,UYF,-83.462,39.9327
1920,LPR,-82.1794,41.3461
1921,MFD,-82.52,40.82
1922,MNN,-83.0635,40.6162
1923,MRT,-83.3516,40.2247
1924,MWO,-84.3953,39.531
1925,10G,-81.9544,40.5372
1926,4I3,-82.5261,40.3289
1927,VTA,-82.4618,40.0247
1928,PHD,-81.4236,40.4719
1929,OWX,-83.982,41.0356
1930,OXD,-84.7844,39.5022
1931,PCW,-82.8687,41.5163
1932,PMH,-82.8473,38.8405
1933,29G,-81.2516,41.2102
1934,POV,-81.2516,41.2102
1935,LCK,-82.9278,39.8138
1936,SGH,-83.8402,39.8403
1937,TDZ,-83.4764,41.5631
1938,TOL,-83.8014,41.5886
1939,I74,-83.7534,40.1326
1940,VNW,-84.613,40.8633
1941,VES,-84.5319,40.2044
1942,AXV,-84.2989,40.4934
1943,I23,-83.4205,39.5704
1944,USE,-84.1272,41.6101
1945,LNN,-81.3898,41.684
1946,ILN,-83.8217,39.4203
1947,BJJ,-81.8882,40.8748
1948,FFO,-84.0483,39.8261
1949,YNG,-80.6739,41.2544
1950,ZZV,-81.8921,39.9444
1951,ADH,-96.6712,34.8043
1952,AXS,-99.3385,34.6988
1953,LTS,-99.2667,34.6671
1954,AVK,-98.67,36.7732
1955,1F0,-97.1226,34.147
1956,ADM,-97.0195,34.3032
1957,AQR,-96.15,34.4
1958,BVO,-96.0112,36.7625
1959,BKN,-97.3496,36.7451
1960,CQB,-96.8203,35.7238
1961,CHK,-97.9677,35.0974
1962,GCM,-95.48,36.29
1963,CLK,-98.9327,35.5383
1964,CSM,-99.2005,35.3398
1965,CUH,-96.7731,35.9499
1966,DUA,-96.3945,33.9423
1967,ELK,-99.3943,35.4308
1968,RQO,-98.0058,35.4727
1969,WDG,-97.7911,36.3792
1970,FSI,-98.4033,34.6449
1971,FDR,-98.9839,34.3521
1972,GAG,-99.7764,36.2955
1973,GMJ,-94.7386,36.6068
1974,GOK,-97.4156,35.8498
1975,GUY,-101.5053,36.6817
1976,DUC,-97.96,34.47
1977,HBR,-99.0514,34.9913
1978,HHW,-95.5419,34.0348
1979,4O4,-94.8594,33.9094
1980,LAW,-98.4166,34.5677
1981,MLC,-95.7831,34.8822
1982,MIO,-94.8875,36.9092
1983,MKO,-95.3614,35.6567
1984,OUN,-97.4708,35.2435
1985,RCE,-97.8236,35.4881
1986,OKC,-97.6006,35.3889
1987,HSD,-97.7092,35.6019
1988,PWA,-97.6471,35.5342
1989,OKM,-95.95,35.67
1990,PVJ,-97.2231,34.7108
1991,PNC,-97.1,36.73
1992,H71,-95.3301,36.2254
1993,RKR,-94.62,35.02
1994,JSV,-94.8028,35.4381
1995,OWP,-96.1518,36.1753
1996,SRE,-96.6752,35.2747
1997,SNL,-96.9428,35.3573
1998,GZL,-95.0939,35.2891
1999,SWO,-97.0857,36.1612
2000,TQH,-95.0,35.93
2001,TIK,-97.3866,35.4147
2002,TUL,-95.8881,36.1984
2003,RVS,-95.9846,36.0396
2004,END,-97.9165,36.3392
2005,JWG,-98.4208,35.8647
2006,OJA,-98.6685,35.5448
2007,WWR,-99.5227,36.438
2008,AST,-123.8825,46.1569
2009,UAO,-122.77,45.25
2010,BKE,-117.8091,44.8374
2011,BDN,-121.2002,44.0946
2012,BOK,-124.2901,42.0746
2013,4BK,-124.2833,42.05
2014,BNO,-118.9564,43.595
2015,CZK,-121.8789,45.6769
2016,CVO,-123.2895,44.4971
2017,77S,-123.0067,43.9308
2018,EUG,-123.212,44.1246
2019,6S2,-124.1114,43.9828
2020,4S1,-124.4249,42.4153
2021,3S8,-123.3886,42.509
2022,HRI,-119.2611,45.8258
2023,4S2,-121.5365,45.6726
2024,GCD,-118.9625,44.4042
2025,JSY,-117.2538,45.3595
2026,LMT,-121.7242,42.1469
2027,LGD,-118.0071,45.2902
2028,LKV,-120.3991,42.1611
2029,9S9,-119.6903,45.4541
2030,S33,-121.1551,44.6702
2031,MMV,-123.1361,45.1946
2032,MEH,-118.4247,45.5114
2033,MFR,-122.8722,42.3811
2034,JNW,-124.0667,44.5833
2035,ONP,-124.0579,44.5804
2036,OTH,-124.2437,43.4195
2037,ONO,-117.0128,44.0206
2038,PDT,-118.8414,45.6951
2039,HIO,-122.9502,45.5406
2040,PDX,-122.6003,45.5908
2041,TTD,-122.4098,45.551
2042,S39,-120.9038,44.287
2043,RDM,-121.15,44.2539
2044,REO,-117.8644,42.5906
2045,RBG,-123.3559,43.2388
2046,SLE,-123.0025,44.9095
2047,SPB,-122.86,45.77
2048,SXT,-123.3642,42.6003
2049,S21,-121.4531,43.8763
2050,TMK,-123.8144,45.4182
2051,XLL,-75.4883,40.5703
2052,JVU,-75.4883,40.5703
2053,ABE,-75.4492,40.6508
2054,AOO,-78.32,40.2964
2055,BVI,-80.3914,40.7725
2056,HMZ,-78.5122,40.0853
2057,BFD,-78.6401,41.8031
2058,BTP,-79.9497,40.7769
2059,FIG,-78.4117,41.0467
2060,MQS,-75.8655,39.979
2061,VVS,-79.6575,39.9581
2062,DYL,-75.1223,40.333
2063,DUJ,-78.9,41.18
2064,ERI,-80.18,42.08
2065,RYT,-77.43,39.734
2066,FKL,-79.8604,41.3779
2067,CXY,-76.8515,40.2171
2068,HZL,-75.9949,40.9868
2069,IDI,-79.1055,40.6322
2070,JST,-78.8339,40.3161
2071,LNS,-76.2944,40.1203
2072,LBE,-79.4048,40.2759
2073,22N,-75.7615,40.8095
2074,XIF,-77.43,39.729
2075,GKJ,-80.2147,41.6265
2076,MDT,-76.7633,40.1936
2077,MPO,-75.3794,41.1389
2078,MUI,-76.5693,40.4348
2079,UCP,-80.4134,41.0253
2080,CKZ,-75.2905,40.3892
2081,PHL,-75.2311,39.8683
2082,PNE,-75.0134,40.0789
2083,LOM,-75.2651,40.1376
2084,PSB,-78.0873,40.8844
2085,AGC,-79.9217,40.3547
2086,PIT,-80.2329,40.4915
2087,PTW,-75.5572,40.2383
2088,UKT,-75.3819,40.4352
2089,RDG,-75.9652,40.3785
2090,RVL,-77.6268,40.6774
2091,SEG,-76.8639,40.8206
2092,2G9,-79.015,40.0389
2093,UNV,-77.85,40.85
2094,OYM,-78.5026,41.4125
2095,THV,-76.873,39.917
2096,AFJ,-80.2902,40.1365
2097,N38,-77.3965,41.7279
2098,OQN,-75.5803,39.9889
2099,AVP,-75.7227,41.3335
2100,IPT,-76.9217,41.2433
2101,NXX,-75.15,40.2
2102,PJC,-80.1624,40.8009
2103,BID,-71.58,41.17
2104,UUU,-71.2815,41.5324
2105,OQU,-71.4121,41.5971
2106,SFZ,-71.4914,41.9208
2107,PVD,-71.4325,41.7219
2108,WST,-71.7989,41.3497
2109,AIK,-81.685,33.6494
2110,AQX,-81.2703,32.9951
2111,AND,-82.7094,34.4946
2112,BNL,-81.3883,33.2578
2113,ARW,-80.6344,32.4122
2114,NBC,-80.7232,32.4774
2115,BBP,-79.7344,34.6217
2116,CDN,-80.5649,34.2836
2117,CHS,-80.0405,32.8986
2118,JZI,-80.0029,32.7009
2119,CQW,-79.957,34.7129
2120,DCM,-81.1958,34.7893
2121,CEU,-82.8868,34.6719
2122,CAE,-81.1181,33.9419
2123,CUB,-80.9938,33.972
2124,HYW,-79.1222,33.8285
2125,UDG,-79.89,34.45
2126,FLO,-79.7239,34.1854
2127,GGE,-79.3196,33.3117
2128,GYH,-82.3764,34.7583
2129,GMU,-82.3461,34.8461
2130,GSP,-82.2239,34.8847
2131,GRD,-82.16,34.25
2132,HVS,-80.1192,34.4031
2133,HXD,-80.6975,32.2244
2134,CKI,-79.857,33.7172
2135,LKR,-80.8544,34.723
2136,LUX,-81.9472,34.5071
2137,MNI,-80.2087,33.5871
2138,MAO,-79.3347,34.1812
2139,MMT,-80.8,33.92
2140,MKS,-80.0362,33.1855
2141,LRO,-79.7829,32.8978
2142,MYR,-78.93,33.68
2143,EOE,-81.6397,34.3093
2144,XNO,-81.0701,33.6117
2145,CRE,-78.7239,33.8118
2146,OGB,-80.8595,33.4568
2147,LQK,-82.7029,34.81
2148,UZA,-81.0572,34.9878
2149,SSC,-80.47,33.97
2150,SPA,-81.9565,34.9157
2151,DYB,-80.2793,33.0634
2152,SMS,-80.3613,33.995
2153,35A,-81.6412,34.687
2154,RBW,-80.6406,32.921
2155,FDW,-81.1088,34.3155
2156,ABR,-98.42,45.45
2157,EFC,-103.862,44.7342
2158,BRA,-96.85,44.6833
2159,BTN,-97.7428,45.815
2160,BKX,-96.8169,44.3048
2161,2WX,-103.5464,45.6044
2162,9V9,-99.3183,43.7667
2163,CUT,-103.6114,43.7331
2164,RCA,-103.1036,44.1451
2165,D07,-102.02,45.03
2166,HON,-98.2286,44.3852
2167,Y22,-102.1667,45.9167
2168,LEM,-102.1062,45.9187
2169,MDS,-97.0859,44.016
2170,MHE,-98.0386,43.7748
2171,MBG,-100.4078,45.5464
2172,PHP,-101.6,44.05
2173,PIR,-100.286,44.3827
2174,IEN,-102.511,43.0225
2175,RAP,-103.0574,44.0453
2176,FSD,-96.7536,43.5769
2177,8D3,-96.9914,45.6689
2178,SPF,-103.783,44.4803
2179,ATY,-97.1547,44.914
2180,SFD,-99.8421,43.3902
2181,ICR,-99.8422,43.3903
2182,YKN,-97.3859,42.9167
2183,MMI,-84.5626,35.3973
2184,M08,-89.0434,35.2145
2185,TRI,-82.4074,36.4752
2186,CHA,-85.2038,35.0353
2187,CKV,-87.415,36.6219
2188,RZR,-84.7998,35.2115
2189,MRC,-87.1791,35.5544
2190,M04,-89.5872,35.5834
2191,CSV,-85.085,35.9513
2192,2A0,-84.9322,35.4817
2193,M02,-87.4298,36.1279
2194,DYR,-89.4066,35.998
2195,0A9,-82.1734,36.3712
2196,UCY,-88.9857,36.3797
2197,FYM,-86.564,35.0597
2198,M33,-86.4088,36.3768
2199,GCY,-82.811,36.196
2200,HZD,-88.4654,36.089
2201,JAU,-84.163,36.3341
2202,MKL,-88.9167,35.5931
2203,JWN,-86.8867,36.1824
2204,DKX,-83.8737,35.9638
2205,TYS,-83.9858,35.8181
2206,2M2,-87.2579,35.2343
2207,M54,-86.3157,36.1904
2208,PVE,-88.1954,35.6564
2209,LUG,-86.803,35.5136
2210,8A3,-85.3116,36.4121
2211,MNV,-84.3804,35.5452
2212,RNC,-85.8438,35.6987
2213,MEM,-89.985,35.0611
2214,NQA,-89.8703,35.3567
2215,MOR,-83.3754,36.1794
2216,MBT,-86.3775,35.8775
2217,BNA,-86.6892,36.1189
2218,OQT,-84.2336,36.023
2219,SCX,-84.5858,36.4557
2220,PHT,-88.3844,36.3359
2221,1M5,-86.4769,36.5929
2222,GZS,-87.0568,35.1537
2223,RKW,-84.6897,35.9223
2224,SNH,-88.2167,35.1703
2225,GKT,-83.5287,35.8578
2226,SYI,-86.4425,35.5594
2227,SZY,-88.4984,35.2029
2228,MQY,-86.5201,36.009
2229,FYE,-89.3929,35.2061
2230,SRB,-85.5307,36.0559
2231,M91,-86.9189,36.5363
2232,XNX,-86.4084,36.3751
2233,THA,-86.2467,35.38
2234,BGF,-86.0662,35.1775
2235,ABI,-99.6821,32.4106
2236,GYF,-94.898,26.129
2237,ALI,-98.0269,27.7409
2238,E38,-103.684,30.384
2239,AMA,-101.7059,35.2194
2240,E11,-102.5295,32.3311
2241,LBX,-95.4621,29.1086
2242,GKY,-97.0943,32.6639
2243,F44,-95.8284,32.1638
2244,ATA,-94.1953,33.1018
2245,EDC,-97.5621,30.3926
2246,ATT,-97.7601,30.3208
2247,AUS,-97.6699,30.1945
2248,BSM,-97.6699,30.1945
2249,BYY,-95.8634,28.9732
2250,BMT,-94.2151,30.0702
2251,BPT,-94.0261,29.9521
2252,BEA,-97.791,28.3619
2253,E41,-101.4725,31.1989
2254,BPG,-101.5216,32.2126
2255,F00,-96.1793,33.6131
2256,VAF,-94.6253,27.3536
2257,BGD,-101.3937,35.7009
2258,0F2,-97.7756,33.6017
2259,BBD,-99.3239,31.1793
2260,CFD,-96.3314,30.7157
2261,BBF,-96.014,27.833
2262,BQX,-95.7244,28.4936
2263,BKD,-98.891,32.719
2264,11R,-96.3742,30.2189
2265,XBP,-97.8284,33.1753
2266,BRO,-97.4231,25.9146
2267,BWD,-98.9565,31.7936
2268,BMQ,-98.2386,30.7389
2269,RWV,-96.7041,30.5155
2270,T35,-96.9711,30.8794
2271,HHF,-100.404,35.895
2272,CZT,-99.8236,28.5222
2273,FTN,-100.0188,28.2086
2274,4F2,-94.2988,32.176
2275,T89,-98.8509,29.3419
2276,CVB,-98.8509,29.3419
2277,F17,-94.1564,31.8316
2278,CDS,-100.2881,34.4339
2279,GZN,-99.0237,32.3658
2280,LBR,-95.0636,33.5932
2281,CPT,-97.4338,32.3538
2282,6R3,-95.008,30.3564
2283,COM,-99.4036,31.8411
2284,CLL,-96.3639,30.5881
2285,66R,-96.5158,29.6411
2286,MKN,-98.6,31.92
2287,CXO,-95.4145,30.3524
2288,NGW,-97.4388,27.7024
2289,CRP,-97.5128,27.7731
2290,NGP,-97.2911,27.6926
2291,CRS,-96.4,32.03
2292,COT,-99.2183,28.4567
2293,DKR,-95.4038,31.307
2294,DHT,-102.5473,36.0226
2295,ADS,-96.8364,32.9686
2296,DFW,-97.038,32.8968
2297,DAL,-96.8518,32.8471
2298,RBD,-96.87,32.68
2299,LUD,-97.5805,33.2542
2300,DRT,-100.9272,29.3742
2301,DTO,-97.2006,33.205
2302,FWS,-97.3033,32.573
2303,6R6,-102.2129,30.046
2304,DUX,-102.013,35.858
2305,DYS,-99.855,32.421
2306,ELA,-96.3219,29.6006
2307,EMK,-94.3228,27.8186
2308,ETN,-98.8098,32.4135
2309,EBG,-98.1222,26.4417
2310,ELP,-106.3758,31.8111
2311,BKS,-98.1211,27.2067
2312,BIF,-106.38,31.8495
2313,GRK,-97.83,31.07
2314,FST,-102.9167,30.9119
2315,AFW,-97.3179,32.9716
2316,FTW,-97.3624,32.8198
2317,NFW,-97.4365,32.781
2318,T82,-98.9092,30.2432
2319,HLR,-97.7145,31.1387
2320,GLE,-97.1969,33.6514
2321,GVX,-94.9767,28.5767
2322,GLS,-94.8604,29.2653
2323,GOP,-97.797,31.4213
2324,GTU,-97.6767,30.6808
2325,8T6,-98.1165,28.3628
2326,GYB,-96.98,30.17
2327,JXI,-94.95,32.7
2328,T20,-97.4614,29.528
2329,RPH,-98.555,33.11
2330,GDJ,-97.8169,32.4444
2331,GPM,-97.0469,32.6988
2332,GVT,-96.0653,33.0678
2333,GDP,-104.8098,31.8331
2334,GUL,-93.5383,27.3039
2335,MNZ,-98.1486,31.6659
2336,HRL,-97.6544,26.2285
2337,LHB,-96.62,30.87
2338,HBV,-98.7369,27.3496
2339,RFI,-94.8517,32.1417
2340,F12,-94.8517,32.1417
2341,HRX,-102.3264,34.8578
2342,HQI,-93.6708,27.962
2343,INJ,-97.0972,32.0836
2344,HDO,-99.1742,29.3594
2345,HHV,-94.6886,26.9392
2346,DZB,-98.3588,30.5271
2347,MCJ,-95.395,29.714
2348,DWH,-95.5562,30.068
2349,EFD,-95.1588,29.6073
2350,TME,-95.8979,29.805
2351,SGR,-95.6565,29.6222
2352,IAH,-95.3414,29.9844
2353,AXH,-95.4769,29.5061
2354,HOU,-95.2824,29.6375
2355,UTS,-95.5872,30.7469
2356,TFP,-97.2115,27.913
2357,JSO,-95.22,31.87
2358,JAS,-94.0349,30.8857
2359,JCT,-99.7664,30.5108
2360,SKF,-98.5811,29.3842
2361,2R9,-97.8656,28.825
2362,ERV,-99.0855,29.9767
2363,CWC,-98.4904,33.8578
2364,ILE,-97.6865,31.0858
2365,IKG,-98.0309,27.5509
2366,NQI,-97.8097,27.5072
2367,RYW,-97.9659,30.4967
2368,3T5,-96.95,29.91
2369,2F5,-101.9018,32.7479
2370,LUV,-101.9202,32.7563
2371,LZZ,-98.1959,31.1062
2372,LNC,-96.719,32.5792
2373,LRD,-99.4615,27.5438
2374,T70,-100.481,29.126
2375,DLF,-100.778,29.3595
2376,LLN,-102.3725,33.5525
2377,T78,-94.6986,30.0778
2378,AQO,-98.6619,30.7836
2379,GGG,-94.7115,32.384
2380,LBB,-101.8228,33.6636
2381,LFK,-94.75,31.234
2382,MRF,-104.02,30.37
2383,ASL,-94.3078,32.5205
2384,5T9,-100.5135,28.8571
2385,MFE,-98.2386,26.1758
2386,PWG,-97.3165,31.4849
2387,TKI,-96.59,33.18
2388,NMT,-98.7242,28.2361
2389,HQZ,-96.5304,32.747
2390,LXY,-96.5145,31.6412
2391,MDD,-102.101,32.0365
2392,MAF,-102.2075,31.9466
2393,JWY,-96.9125,32.4561
2394,JDD,-95.4965,32.7422
2395,MWL,-98.0602,32.7816
2396,OSA,-94.9614,33.0956
2397,MIU,-96.7367,27.2917
2398,MZG,-96.1911,27.7269
2399,OCH,-94.7094,31.5778
2400,BAZ,-98.045,29.709
2401,OPM,-96.94,26.8328
2402,ODO,-102.3867,31.9206
2403,ORG,-93.8036,30.0692
2404,NOG,-98.0517,27.9011
2405,OZA,-101.203,30.7353
2406,PSX,-96.25,28.73
2407,PSN,-95.7063,31.7797
2408,BPC,-101.0301,35.8893
2409,PPA,-100.9962,35.613
2410,PRX,-95.4508,33.6366
2411,LVJ,-95.2417,29.5189
2412,PEQ,-103.51,31.38
2413,PYX,-100.75,36.414
2414,25T,-94.68,26.93
2415,PVW,-101.7173,34.1682
2416,PEZ,-98.52,28.9542
2417,RAS,-97.09,27.81
2418,PIL,-97.3378,26.1597
2419,PKV,-96.681,28.654
2420,T77,-104.3616,29.6341
2421,PRS,-104.3615,29.6342
2422,RND,-98.28,29.53
2423,6P9,-98.5948,32.4317
2424,RBO,-97.6905,27.7785
2425,RKP,-97.0464,28.0836
2426,ECU,-100.1738,29.9469
2427,F46,-96.4355,32.9306
2428,RPE,-93.95,29.7
2429,SJT,-100.495,31.3517
2430,5C1,-98.6946,29.7239
2431,SAT,-98.4698,29.5337
2432,SSF,-98.471,29.337
2433,HYI,-97.863,29.8928
2434,81R,-98.717,31.2352
2435,SEQ,-97.9083,29.5658
2436,GNC,-102.6527,32.6753
2437,SHP,-98.4833,33.9667
2438,F39,-96.6667,33.7167
2439,GYI,-96.6737,33.7141
2440,T69,-97.5425,28.0386
2441,SNK,-100.9505,32.6934
2442,SOA,-100.6486,30.5857
2443,SPL,-97.1572,26.0706
2444,E42,-101.1945,36.221
2445,SEP,-98.1777,32.2153
2446,SLR,-95.62,33.16
2447,SWW,-100.4666,32.4674
2448,T74,-97.4432,30.5726
2449,TPL,-97.4078,31.1525
2450,TRL,-96.27,32.71
2451,TYR,-95.4024,32.3541
2452,UVA,-99.7436,29.2113
2453,VHN,-104.7838,31.0578
2454,F05,-99.2838,34.2257
2455,VCT,-96.9303,28.8614
2456,CNW,-97.0741,31.6378
2457,ACT,-97.2283,31.618
2458,TXW,-97.9731,26.1775
2459,T65,-97.9731,26.1776
2460,CRH,-93.3016,28.9086
2461,ARM,-96.1544,29.2543
2462,SPS,-98.4928,33.9786
2463,INK,-103.2,31.78
2464,APY,-99.2489,26.9688
2465,VKY,-88.441,29.248
2466,U52,-112.6753,38.2307
2467,BDG,-109.4831,37.5828
2468,4BL,-109.4667,37.6167
2469,BMC,-112.0622,41.5524
2470,BCE,-112.1456,37.7064
2471,CDC,-113.1,37.7
2472,DTA,-112.5077,39.3806
2473,U24,-112.5861,39.3375
2474,U69,-110.381,40.1919
2475,DPG,-112.935,40.1974
2476,U16,-113.0667,41.05
2477,QCA,-113.3497,40.1664
2478,U28,-110.1667,39.0
2479,HVE,-110.704,38.418
2480,4HV,-110.715,38.371
2481,36U,-111.4288,40.4818
2482,HCR,-111.43,40.47
2483,HIF,-111.973,41.1239
2484,KNB,-112.5312,37.0111
2485,LGU,-111.8516,41.7913
2486,40U,-109.6785,40.9861
2487,41U,-111.6126,39.3314
2488,MLF,-113.0125,38.4266
2489,CNY,-109.7548,38.755
2490,OGD,-112.0129,41.1957
2491,U55,-112.3911,37.8511
2492,PUC,-110.7547,39.6092
2493,PVU,-111.7234,40.2192
2494,74V,-110.0513,40.2783
2495,SLC,-111.97,40.78
2496,U42,-111.9902,40.6196
2497,SPK,-111.6677,40.145
2498,SGU,-113.5103,37.0364
2499,DXZ,-113.5103,37.0364
2500,TVY,-112.3508,40.6126
2501,T62,-112.3,40.3167
2502,VEL,-109.5099,40.4409
2503,ENV,-114.0309,40.7187
2504,VJI,-82.0333,36.6871
2505,BKT,-77.9575,37.0742
2506,VBW,-78.9603,38.3667
2507,0V4,-79.0164,37.1417
2508,7W4,-77.7459,37.9658
2509,CHO,-78.4529,38.1386
2510,CXE,-78.5016,36.7883
2511,CPK,-76.3207,36.6656
2512,FCI,-77.5248,37.4064
2513,W63,-78.5601,36.5958
2514,W81,-78.0983,37.181
2515,CJR,-77.8589,38.5267
2516,DAN,-79.3361,36.5729
2517,PSK,-80.6785,37.1374
2518,EMV,-77.4828,36.6869
2519,FVX,-78.4378,37.3575
2520,NFE,-76.1356,36.695
2521,DAA,-77.181,38.715
2522,FAF,-76.6088,37.1325
2523,FKN,-76.9038,36.6981
2524,FRR,-78.2535,38.9175
2525,GVE,-78.1658,38.156
2526,HLX,-80.8236,36.7661
2527,HSP,-79.8339,37.9514
2528,0VG,-83.2178,36.6541
2529,W31,-78.185,36.9601
2530,LFI,-76.3605,37.0828
2531,LVL,-77.7943,36.7728
2532,JYO,-77.5575,39.078
2533,LKU,-77.97,38.01
2534,W45,-78.5006,38.6671
2535,LUA,-78.5006,38.6671
2536,LYH,-79.2067,37.3208
2537,HEF,-77.5154,38.7214
2538,MKJ,-81.3499,36.8949
2539,MTV,-80.0133,36.6272
2540,MFV,-75.7611,37.6469
2541,8W2,-78.7081,38.6557
2542,PHF,-76.493,37.1319
2543,PVG,-76.4488,36.7801
2544,ORF,-76.1922,36.9033
2545,NGU,-76.2893,36.9375
2546,NTU,-76.0335,36.8207
2547,OMH,-78.0456,38.2472
2548,PTB,-77.5074,37.1838
2549,NYG,-77.3053,38.5017
2550,W96,-77.1255,37.5032
2551,JFZ,-81.7983,37.0638
2552,6V3,-81.7981,37.0636
2553,OFP,-77.4366,37.7089
2554,RIC,-77.3234,37.5115
2555,ROA,-79.9737,37.3172
2556,W75,-76.4467,37.6024
2557,EZF,-77.4494,38.2662
2558,W78,-78.848,36.71
2559,AVC,-78.0545,36.6883
2560,RMN,-77.4555,38.3981
2561,SHD,-78.8964,38.2638
2562,SFQ,-76.6019,36.6824
2563,TGI,-75.9978,37.8251
2564,XSA,-76.8941,37.8596
2565,BCB,-80.4078,37.2076
2566,AKQ,-77.0072,36.9839
2567,WAL,-75.4631,37.9406
2568,HWY,-77.7106,38.5863
2569,IAD,-77.4473,38.9348
2570,DCA,-77.0346,38.8472
2571,W13,-78.9444,38.0769
2572,FYJ,-76.7647,37.5211
2573,JGG,-76.7161,37.2392
2574,OKV,-78.1444,39.1435
2575,LNP,-82.53,36.9875
2576,MPV,-72.5623,44.2035
2577,DDH,-73.2486,42.8935
2578,BTV,-73.15,44.47
2579,FSO,-73.0975,44.9403
2580,CDA,-72.018,44.5691
2581,6B0,-73.0955,43.9855
2582,MVL,-72.614,44.5346
2583,EFK,-72.2292,44.8888
2584,RUT,-72.95,43.53
2585,VSF,-72.5173,43.3436
2586,1V4,-72.02,44.42
2587,AWO,-122.159,48.1608
2588,BLI,-122.5375,48.7927
2589,PWT,-122.7648,47.4902
2590,BVS,-122.42,48.47
2591,CLS,-122.9827,46.677
2592,63S,-117.8835,48.5442
2593,CQV,-117.8833,48.55
2594,DEW,-117.4211,47.9689
2595,ORS,-122.91,48.71
2596,ELN,-120.5307,47.033
2597,EPH,-119.5147,47.3081
2598,PAE,-122.2816,47.907
2599,SKA,-117.6558,47.6151
2600,GRF,-122.58,47.08
2601,FHR,-123.0244,48.522
2602,HMS,-119.6,46.5667
2603,HQM,-123.9366,46.9712
2604,KLS,-122.9,46.12
2605,TCM,-122.4765,47.1377
2606,MWH,-119.3191,47.2086
2607,OKH,-122.6737,48.2515
2608,OLM,-122.9033,46.9733
2609,OMK,-119.5181,48.4644
2610,PSC,-119.119,46.2647
2611,VUO,-122.6565,45.6204
2612,NOW,-123.414,48.1413
2613,CLM,-123.5,48.12
2614,0S9,-122.8106,48.0538
2615,PUW,-117.1096,46.7439
2616,PLU,-122.2872,47.1039
2617,UIL,-124.5626,47.9366
2618,RNT,-122.2158,47.4931
2619,RLD,-119.3012,46.3015
2620,BFI,-122.3,47.53
2621,SEA,-122.3144,47.4447
2622,SHN,-123.1476,47.2336
2623,SFF,-117.3226,47.6828
2624,GEG,-117.528,47.6216
2625,SMP,-121.3372,47.2767
2626,1S5,-119.9704,46.3271
2627,TIW,-122.5761,47.2675
2628,DLS,-121.1673,45.6186
2629,TDO,-122.8065,46.4772
2630,1YT,-120.45,46.66
2631,ALW,-118.289,46.0948
2632,EAT,-120.207,47.399
2633,NUW,-122.656,48.3518
2634,S52,-120.1459,48.4249
2635,YKM,-120.5441,46.5682
2636,1QW,-120.1667,46.8
2637,AIG,-89.1107,45.1542
2638,ATW,-88.5191,44.2581
2639,ASX,-90.9189,46.5487
2640,GRB,-88.1367,44.4794
2641,BCK,-90.8553,44.2507
2642,OVS,-90.6775,43.1561
2643,BUU,-88.3046,42.6907
2644,Y23,-91.6381,45.3106
2645,CLI,-88.7314,44.6139
2646,UBE,-91.9811,45.506
2647,DLL,-89.771,43.522
2648,EGV,-89.2683,45.9323
2649,57C,-88.3726,42.7972
2650,EAU,-91.4843,44.8658
2651,3D2,-87.1881,45.1357
2652,FLD,-88.4884,43.7712
2653,HYR,-91.4442,46.0253
2654,JVL,-89.0416,42.6202
2655,UNU,-88.7038,43.4265
2656,ENW,-87.9381,42.595
2657,LSE,-91.25,43.88
2658,RCX,-91.0005,45.4968
2659,LNL,-89.2121,46.154
2660,4R5,-90.7587,46.7887
2661,82C,-90.1377,43.8387
2662,LNR,-90.1798,43.2119
2663,MSN,-89.3453,43.1406
2664,MTW,-87.6806,44.1288
2665,D25,-89.8822,46.1202
2666,MFI,-90.1893,44.6369
2667,MDZ,-90.3033,45.1008
2668,LUM,-91.8678,44.8923
2669,RRL,-89.7129,45.1989
2670,C29,-89.5315,43.1143
2671,MKE,-87.8967,42.9472
2672,MWC,-88.0344,43.1104
2673,MRJ,-90.2362,42.8868
2674,ARV,-89.7309,45.9279
2675,EFT,-89.5904,42.6149
2676,CWA,-89.6668,44.7776
2677,RNH,-92.5381,45.1483
2678,OCQ,-87.9096,44.8742
2679,OEO,-92.69,45.3086
2680,OSH,-88.557,43.9844
2681,PBH,-90.4025,45.7089
2682,PVB,-90.4444,42.6894
2683,PDC,-91.1237,43.0193
2684,RAC,-87.8136,42.7611
2685,C35,-89.9832,43.5259
2686,RHI,-89.4675,45.6312
2687,RPD,-91.7733,45.4201
2688,EZS,-88.56,44.7873
2689,SBM,-87.8517,43.7698
2690,RZN,-92.3725,45.8227
2691,OLG,-91.8164,46.3148
2692,CMY,-90.7379,43.9584
2693,STE,-89.5303,44.5451
2694,SUE,-87.4216,44.8437
2695,SUW,-92.0947,46.6897
2696,TKV,-89.8057,45.469
2697,Y51,-90.8965,43.5794
2698,VOK,-90.2532,43.9392
2699,2P2,-86.924,45.3883
2700,RYV,-88.7232,43.1696
2701,UES,-88.2371,43.041
2702,PCZ,-89.0198,44.3333
2703,AUW,-89.6266,44.9262
2704,Y50,-89.3045,44.0416
2705,ETB,-88.1279,43.4222
2706,ISW,-89.8369,44.3592
2707,BKW,-81.1242,37.7873
2708,BLF,-81.2077,37.2958
2709,W22,-80.2737,39.0005
2710,CRW,-81.59,38.3794
2711,CKB,-80.2281,39.2966
2712,EKN,-79.8528,38.8853
2713,W99,-79.1459,38.9949
2714,HTS,-82.555,38.365
2715,LWB,-80.3995,37.8583
2716,6L4,-81.9159,37.8557
2717,MRB,-77.9847,39.4019
2718,MGW,-79.9163,39.6429
2719,PKB,-81.4392,39.3451
2720,I16,-81.56,37.6
2721,3I2,-82.0986,38.9146
2722,48I,-80.6518,38.687
2723,HLG,-80.6463,40.175
2724,TMH,-106.3333,43.1167
2725,AFO,-110.9422,42.7112
2726,46U,-111.0424,43.1846
2727,ARL,-106.21,41.71
2728,BVR,-108.2833,42.5833
2729,BFU,-105.45,43.9333
2730,BPI,-110.1112,42.5851
2731,BIT,-108.5833,41.65
2732,BRX,-104.95,41.9333
2733,TBX,-108.2384,43.4646
2734,BYG,-106.72,44.38
2735,CPR,-106.4644,42.908
2736,CMS,-109.4667,41.5333
2737,FEW,-104.8672,41.1333
2738,CYS,-104.8105,41.1556
2739,CHJ,-109.37,44.75
2740,COD,-109.0238,44.5202
2741,CTD,-107.7833,41.7167
2742,U68,-108.4455,44.9117
2743,DHS,-106.1,44.2167
2744,DRC,-105.8667,42.8333
2745,DWX,-107.4925,41.0374
2746,DGW,-105.3858,42.7972
2747,DUB,-109.6903,43.5484
2748,EHY,-106.4594,41.7253
2749,EVW,-111.0306,41.2731
2750,FIR,-110.7667,41.3
2751,FBR,-110.4059,41.3941
2752,GCC,-105.5394,44.3489
2753,GEY,-108.0828,44.5168
2754,GUR,-104.7283,42.2597
2755,GUN,-104.34,41.43
2756,HLD,-107.3167,43.1
2757,W43,-104.5678,44.6629
2758,IDV,-106.65,43.9333
2759,IKA,-104.6333,44.3
2760,JAC,-110.737,43.6128
2761,EMM,-110.557,41.8241
2762,LND,-108.7298,42.8152
2763,LAR,-105.675,41.3121
2764,AJL,-110.031,43.674
2765,LSK,-104.4046,42.7538
2766,ECS,-104.3179,43.8854
2767,PAT,-106.85,42.5667
2768,82V,-104.1302,41.1533
2769,PNA,-109.8071,42.7955
2770,PIN,-106.8167,44.5667
2771,POY,-108.7934,44.8672
2772,PUM,-105.4667,41.05
2773,RWL,-107.1999,41.8056
2774,RIM,-110.32,43.1
2775,RIW,-108.4598,43.0642
2776,RKS,-109.0652,41.5942
2777,SGE,-110.5,41.79
2778,SAA,-106.8275,41.4435
2779,SHR,-106.97,44.77
2780,SHC,-109.96,41.93
2781,SIB,-105.0333,42.45
2782,SKL,-106.56,41.13
2783,FWZ,-108.7772,42.5134
2784,JPD,-107.17,44.15
2785,HSG,-108.3897,43.7136
2786,TOR,-104.1528,42.0647
2787,VDW,-105.4,41.15
2788,EAN,-104.9286,42.0555
2789,WTR,-104.87,41.41
2790,WRL,-107.9508,43.9657
2791,P60,-110.4211,44.5444
